[
  {"id": "34", "name": "휘경2동 주민센터", "address": "서울특별시 동대문구 한천로 329 휘경2동 주민센터", "latitude": 37.58991241, "longitude": 127.0686798, "type": "QR", "category": "자전거"},
  {"id": "35", "name": "용신동주민센터", "address": "서울특별시 동대문구 용두동 65-25 용신동주민센터", "latitude": 37.57594681, "longitude": 127.0373612, "type": "LCD", "category": "자전거"},
  {"id": "36", "name": "장안동 사거리", "address": "서울특별시 동대문구 장한로 25길 2 장안동 사거리", "latitude": 37.57217407, "longitude": 127.0713882, "type": "QR", "category": "자전거"},
  {"id": "37", "name": "신설동역8번출구", "address": "서울특별시 동대문구 천호대로 26 신설동역9번출구", "latitude": 37.57419968, "longitude": 127.0264969, "type": "LCD", "category": "자전거"},
  {"id": "38", "name": "휘경공고앞", "address": "서울특별시 동대문구 겸재로 21 휘경공고앞", "latitude": 37.58462524, "longitude": 127.0702896, "type": "LCD", "category": "자전거"},
  {"id": "39", "name": "신이문역 2번출구", "address": "서울특별시 동대문구 이문동186-1 신이문역 2번출구", "latitude": 37.60271072, "longitude": 127.0678635, "type": "LCD", "category": "자전거"},
  {"id": "40", "name": "전농삼성아파트", "address": "서울특별시 동대문구 전농로 192 전농삼성아파트", "latitude": 37.58131027, "longitude": 127.0553436, "type": "LCD", "category": "자전거"},
  {"id": "41", "name": "제기2교", "address": "서울특별시 동대문구 제기동 122-388", "latitude": 37.58774567, "longitude": 127.037384, "type": "LCD", "category": "자전거"},
  {"id": "42", "name": "동대문중 교차로", "address": "서울특별시 동대문구 답십리동 524-1 동대문중 교차로", "latitude": 37.57308578, "longitude": 127.0521622, "type": "QR", "category": "자전거"},
  {"id": "43", "name": "시립동부병원 앞 사거리", "address": "서울특별시 동대문구 용두동 237-10 시립동부병원 앞 사거리", "latitude": 37.57366562, "longitude": 127.0308151, "type": "QR", "category": "자전거"},
  {"id": "44", "name": "신설동역 10번출구 앞", "address": "서울특별시 동대문구 신설동 92-34 신설동역 10번출구 앞", "latitude": 37.57527161, "longitude": 127.023468, "type": "LCD", "category": "자전거"},
  {"id": "45", "name": "용두동 사거리", "address": "서울특별시 동대문구 용두동 237-10 용두동 사거리", "latitude": 37.57768631, "longitude": 127.0310135, "type": "QR", "category": "자전거"},
  {"id": "46", "name": "용두동 래미안허브리츠아파트 앞", "address": "서울특별시 동대문구 용두동 696-13 용두동 레미안허브리츠아파트 앞", "latitude": 37.57638168, "longitude": 127.0351105, "type": "QR", "category": "자전거"},
  {"id": "47", "name": "서울시립대 정문 앞 A", "address": "서울특별시 동대문구 전농동 135-5 시립대 앞", "latitude": 37.58256149, "longitude": 127.0543671, "type": "LCD", "category": "자전거"},
  {"id": "48", "name": "청솔우성아파트 앞", "address": "서울특별시 동대문구 답십리동 94-2 청솔우성아파트 앞", "latitude": 37.57420349, "longitude": 127.0576935, "type": "QR", "category": "자전거"},
  {"id": "49", "name": "전농초등학교 건너편", "address": "서울특별시 동대문구 전농동 693-1", "latitude": 37.57489014, "longitude": 127.0535355, "type": "QR", "category": "자전거"},
  {"id": "50", "name": "전농사거리 교통섬", "address": "서울특별시 동대문구 사가정로 119 전농사거리 교통섬(전농서적 앞)", "latitude": 37.57779312, "longitude": 127.0578308, "type": "QR", "category": "자전거"},
  {"id": "51", "name": "서울시립대 정문 앞 B", "address": "서울특별시 동대문구 서울시립대로 161 서울시립대 정문 앞(시더프라자빌딩 앞)", "latitude": 37.58369827, "longitude": 127.0538559, "type": "LCD", "category": "자전거"},
  {"id": "52", "name": "전농동 동아아파트 앞", "address": "서울특별시 동대문구 서울시립대로 31 전농동 동아아파트 앞(T-World 앞 보도)", "latitude": 37.57418823, "longitude": 127.0458908, "type": "QR", "category": "자전거"},
  {"id": "53", "name": "군자교 서측 녹지대", "address": "서울특별시 동대문구 장한로6길 95 군자교녹지대 동측 앞", "latitude": 37.56115341, "longitude": 127.0709686, "type": "QR", "category": "자전거"},
  {"id": "54", "name": "장안동삼거리 교통섬", "address": "서울특별시 동대문구 사가정로 240 장안동삼거리 교통섬", "latitude": 37.57863235, "longitude": 127.071907, "type": "QR", "category": "자전거"},
  {"id": "55", "name": "휘봉고등학교 앞", "address": "서울특별시 동대문구 한천로 290 휘봉고등학교 앞", "latitude": 37.58681488, "longitude": 127.067543, "type": "QR", "category": "자전거"},
  {"id": "56", "name": "동대문구 보건소", "address": "서울특별시 동대문구 천호대로 145 동대문구 보건소", "latitude": 37.57485199, "longitude": 127.0403061, "type": "QR", "category": "자전거"},
  {"id": "57", "name": "답십리역 1번출구", "address": "서울특별시 동대문구 천호대로 269 답십리역 1번출구", "latitude": 37.5681839, "longitude": 127.0512772, "type": "QR", "category": "자전거"},
  {"id": "58", "name": "청량리 기업은행 앞", "address": "서울특별시 동대문구 홍릉로 1 청량리 기업은행 앞", "latitude": 37.58040619, "longitude": 127.0448227, "type": "QR", "category": "자전거"},
  {"id": "59", "name": "외국어대 정문 앞", "address": "서울특별시 동대문구 이문로 107 외국어대 정문 앞", "latitude": 37.59601974, "longitude": 127.0598297, "type": "LCD", "category": "자전거"},
  {"id": "60", "name": "시조사 앞", "address": "서울특별시 동대문구 이문로1길 11 시조사 앞 (청량고정문 옆)", "latitude": 37.58751678, "longitude": 127.0527725, "type": "LCD", "category": "자전거"},
  {"id": "61", "name": "세종대왕기념관 교차로", "address": "서울특별시 동대문구 회기로 56 세종대왕기념관 교차로", "latitude": 37.59090042, "longitude": 127.0425873, "type": "LCD", "category": "자전거"},
  {"id": "62", "name": "KAIST 경영대학 앞", "address": "서울특별시 동대문구 회기로 85 KAIST 경영대학 앞", "latitude": 37.59161377, "longitude": 127.0457916, "type": "LCD", "category": "자전거"},
  {"id": "63", "name": "서울시립대 정보기술관", "address": "서울특별시 동대문구 한천로43길 12-14 서울시립대 정보기술관", "latitude": 37.58300781, "longitude": 127.0609741, "type": "QR", "category": "자전거"},
  {"id": "64", "name": "서울시립대 후문", "address": "서울특별시 동대문구 한천로43길 12-14 서울시립대 후문", "latitude": 37.58512497, "longitude": 127.0609512, "type": "QR", "category": "자전거"},
  {"id": "65", "name": "동대문경찰서 교차로", "address": "서울특별시 동대문구 홍릉로 26-1 거리가게", "latitude": 37.58255005, "longitude": 127.0446014, "type": "LCD", "category": "자전거"},
  {"id": "66", "name": "용두역 4번출구", "address": "서울특별시 동대문구 청계천로 563 용두역 4번출구", "latitude": 37.57375336, "longitude": 127.0385361, "type": "QR", "category": "자전거"},
  {"id": "67", "name": "신답역 사거리", "address": "서울특별시 동대문구 천호대로 231", "latitude": 37.57035446, "longitude": 127.0484314, "type": "QR", "category": "자전거"},
  {"id": "68", "name": "동대문구민체육센터 (육교아래)", "address": "서울특별시 동대문구 장안동 473-6", "latitude": 37.56697083, "longitude": 127.074295, "type": "QR", "category": "자전거"},
  {"id": "69", "name": "장안동위더스빌옆", "address": "서울특별시 동대문구 한천로 42 장안동위더스빌옆", "latitude": 37.56669998, "longitude": 127.0624237, "type": "LCD", "category": "자전거"},
  {"id": "70", "name": "중랑교사거리", "address": "서울특별시 동대문구 망우로 131 중랑교사거리", "latitude": 37.59153366, "longitude": 127.0677414, "type": "LCD", "category": "자전거"},
  {"id": "71", "name": "답십리 래미안엘파인아파트 입구", "address": "서울특별시 동대문구 사가정로 190 답십리 래미안엘파인아파트 입구", "latitude": 37.57653046, "longitude": 127.0659409, "type": "LCD", "category": "자전거"},
  {"id": "72", "name": "전농동 텃골공원", "address": "서울특별시 동대문구 사가정로 65 전농동 텃골공원", "latitude": 37.57762146, "longitude": 127.0521088, "type": "LCD", "category": "자전거"},
  {"id": "73", "name": "영휘원 교차로", "address": "서울특별시 동대문구 홍릉로 78-1 영휘원 교차로", "latitude": 37.58723831, "longitude": 127.0431366, "type": "LCD", "category": "자전거"},
  {"id": "74", "name": "동대문롯데캐슬아파트 앞", "address": "서울특별시 동대문구 전농동 695-5", "latitude": 37.57573318, "longitude": 127.0484772, "type": "LCD", "category": "자전거"},
  {"id": "75", "name": "제기동역1번출구", "address": "서울특별시 동대문구 왕산로 87 제기역1번출구", "latitude": 37.57835007, "longitude": 127.0333862, "type": "LCD", "category": "자전거"},
  {"id": "76", "name": "동의보감타워", "address": "서울특별시 동대문구 왕산로 128 동의보감타워", "latitude": 37.57799911, "longitude": 127.0376282, "type": "LCD", "category": "자전거"},
  {"id": "77", "name": "경희대학교 청운관", "address": "서울특별시 동대문구 경희대로 23 경희의료원", "latitude": 37.59460068, "longitude": 127.0519714, "type": "LCD", "category": "자전거"},
  {"id": "78", "name": "외대앞역 3번출구", "address": "서울특별시 동대문구 휘경로14가길 31 외대앞역 4번출구", "latitude": 37.59489059, "longitude": 127.0630264, "type": "LCD", "category": "자전거"},
  {"id": "79", "name": "서울시립대 건설공학관", "address": "서울특별시 동대문구 서울시립대로 163 서울시립대학교", "latitude": 37.58412933, "longitude": 127.0579376, "type": "LCD", "category": "자전거"},
  {"id": "80", "name": "이문동 쌍용아파트 정문", "address": "서울특별시 동대문구 한천로58길 47 쌍용아파트", "latitude": 37.59960556, "longitude": 127.0686417, "type": "QR", "category": "자전거"},
  {"id": "81", "name": "이문대성유니드아파트 앞", "address": "서울특별시 동대문구 한천로58길 151 이문동대성유니드아파트", "latitude": 37.60362244, "longitude": 127.0708313, "type": "QR", "category": "자전거"},
  {"id": "82", "name": "청량차도 육교 밑", "address": "서울특별시 동대문구 청량리동 49", "latitude": 37.58670807, "longitude": 127.0468826, "type": "QR", "category": "자전거"},
  {"id": "83", "name": "서울축산농협(장안지점)", "address": "서울특별시 동대문구 장한로 79", "latitude": 37.56787109, "longitude": 127.068718, "type": "QR", "category": "자전거"},
  {"id": "84", "name": "청계한신휴플러스앞 삼거리", "address": "서울특별시 동대문구 서울시립대로 14 청계한신휴플러스", "latitude": 37.57214737, "longitude": 127.0446091, "type": "QR", "category": "자전거"},
  {"id": "85", "name": "삼육서울병원 버스정류장", "address": "서울특별시 동대문구 망우로 74", "latitude": 37.58968735, "longitude": 127.061409, "type": "QR", "category": "자전거"},
  {"id": "86", "name": "대광빌딩", "address": "서울특별시 동대문구 신설동 81-197", "latitude": 37.57734299, "longitude": 127.0233765, "type": "QR", "category": "자전거"},
  {"id": "87", "name": "대광고등학교", "address": "서울특별시 동대문구 안암로 6 대광중고등학교", "latitude": 37.57875061, "longitude": 127.024025, "type": "QR", "category": "자전거"},
  {"id": "88", "name": "안암골벽산아파트(후문)", "address": "서울특별시 동대문구 약령시로 25 안암골 벽산아파트", "latitude": 37.58407974, "longitude": 127.0310364, "type": "QR", "category": "자전거"},
  {"id": "89", "name": "고대앞사거리 교통섬", "address": "서울특별시 성북구 안암동5가 40-11", "latitude": 37.58655167, "longitude": 127.0331421, "type": "QR", "category": "자전거"},
  {"id": "90", "name": "FITI시험연구원 앞", "address": "서울특별시 동대문구 제기동 891-2", "latitude": 37.58143234, "longitude": 127.0354767, "type": "QR", "category": "자전거"},
  {"id": "91", "name": "청량리역 4번 5번출구 사이", "address": "서울특별시 동대문구 왕산로 202-1 가로판매대", "latitude": 37.5801506, "longitude": 127.0457993, "type": "QR", "category": "자전거"},
  {"id": "92", "name": "장안힐스테이트(아) 앞", "address": "서울특별시 동대문구 장안벚꽃로1길 7 장안 힐스테이트", "latitude": 37.57655716, "longitude": 127.0743103, "type": "QR", "category": "자전거"},
  {"id": "93", "name": "전농SK아파트 앞", "address": "서울특별시 동대문구 사가정로 150", "latitude": 37.57787704, "longitude": 127.0616837, "type": "QR", "category": "자전거"},
  {"id": "94", "name": "꿈마루어린이도서관 앞", "address": "서울특별시 동대문구 이문동 346-131", "latitude": 37.59238434, "longitude": 127.0574112, "type": "QR", "category": "자전거"},
  {"id": "95", "name": "서울특별시 동부교육지원청(육교)", "address": "서울특별시 동대문구 전농로 168 서울동부교육지원청", "latitude": 37.5798378, "longitude": 127.0563736, "type": "QR", "category": "자전거"},
  {"id": "96", "name": "휘경1동주민센터 앞", "address": "서울특별시 동대문구 외대역동로6길 3", "latitude": 37.59286499, "longitude": 127.0655594, "type": "QR", "category": "자전거"},
  {"id": "97", "name": "휘경sk뷰아파트 앞", "address": "서울특별시 동대문구 휘경로 71 맞은편", "latitude": 37.59383774, "longitude": 127.0678177, "type": "QR", "category": "자전거"},
  {"id": "98", "name": "외대앞역 교차로", "address": "서울특별시 동대문구 외대역동로 67 맞은편", "latitude": 37.59436417, "longitude": 127.0645981, "type": "QR", "category": "자전거"},
  {"id": "99", "name": "서울교통공사사거리 교통섬", "address": "서울특별시 동대문구 천호대로 343", "latitude": 37.56324005, "longitude": 127.057991, "type": "QR", "category": "자전거"},
  {"id": "100", "name": "장안동근린공원 입구", "address": "서울특별시 동대문구 장한로 191 동대문구청소년독서실", "latitude": 37.57633209, "longitude": 127.0717239, "type": "QR", "category": "자전거"},
  {"id": "101", "name": "답십리파크자이아파트 앞", "address": "서울특별시 동대문구 답십리로56길 124", "latitude": 37.5676918, "longitude": 127.0578919, "type": "QR", "category": "자전거"},
  {"id": "102", "name": "용두롯데캐슬리치아파트 앞", "address": "서울특별시 동대문구 용두동 150-32", "latitude": 37.57958603, "longitude": 127.0302429, "type": "QR", "category": "자전거"},
  {"id": "103", "name": "한국국방연구원 앞", "address": "서울특별시 동대문구 회기로 37 한국국방연구원", "latitude": 37.59139633, "longitude": 127.0402985, "type": "QR", "category": "자전거"},
  {"id": "104", "name": "휘경여중고삼거리", "address": "서울특별시 동대문구 한천로 264 맞은편", "latitude": 37.58392334, "longitude": 127.0682755, "type": "QR", "category": "자전거"},
  {"id": "105", "name": "이문e편한세상아파트 앞", "address": "서울특별시 동대문구 한천로63길 10 이문e편한세상아파트", "latitude": 37.60460281, "longitude": 127.0669251, "type": "QR", "category": "자전거"},
  {"id": "106", "name": "휘경119안전센터 앞", "address": "서울특별시 동대문구 망우로 114", "latitude": 37.59087372, "longitude": 127.065361, "type": "QR", "category": "자전거"},
  {"id": "107", "name": "서울문화재단 앞", "address": "서울특별시 동대문구 청계천로 517", "latitude": 37.57130051, "longitude": 127.0336227, "type": "QR", "category": "자전거"},
  {"id": "108", "name": "청계9가교차로 앞", "address": "서울특별시 동대문구 청계천로 471", "latitude": 37.57014847, "longitude": 127.0299225, "type": "QR", "category": "자전거"},
  {"id": "109", "name": "배봉초교 교차로", "address": "서울특별시 동대문구 사가정로 200", "latitude": 37.57846832, "longitude": 127.0668945, "type": "QR", "category": "자전거"},
  {"id": "110", "name": "종암초등학교 뒤(새울센스빌)", "address": "서울특별시 동대문구 약령시로 20 새울센스빌", "latitude": 37.58265686, "longitude": 127.0319672, "type": "QR", "category": "자전거"},
  {"id": "111", "name": "베네스트 오피스텔 앞", "address": "서울특별시 동대문구 무학로 134-2 구두수선대", "latitude": 37.57817078, "longitude": 127.0317001, "type": "QR", "category": "자전거"},
  {"id": "112", "name": "이문삼익아파트 앞", "address": "동대문구 이문동 76", "latitude": 37.5963974, "longitude": 127.0677643, "type": "QR", "category": "자전거"},
  {"id": "113", "name": "래미안허브리츠아파트 앞", "address": "동대문구 용두동 792-7", "latitude": 37.57426071, "longitude": 127.0354538, "type": "QR", "category": "자전거"},
  {"id": "114", "name": "제기동 현대아파트 앞", "address": "동대문구 제기동 891-2", "latitude": 37.57994843, "longitude": 127.0353241, "type": "QR", "category": "자전거"},
  {"id": "115", "name": "삼성생명 앞", "address": "동대문구 용두동 47-1", "latitude": 37.57902145, "longitude": 127.042244, "type": "QR", "category": "자전거"},
  {"id": "116", "name": "극동늘푸른아파트", "address": "서울특별시 중랑구 동일로 941 중랑구 묵동 189-2", "latitude": 37.61473846, "longitude": 127.0763626, "type": "LCD", "category": "자전거"},
  {"id": "117", "name": "금란주차장 앞", "address": "서울특별시 중랑구 망우로 448 금란주차장 앞", "latitude": 37.60007095, "longitude": 127.1023331, "type": "LCD", "category": "자전거"},
  {"id": "118", "name": "중화빌딩 앞 (동부시장)", "address": "서울특별시 중랑구 망우로 211 중화빌딩", "latitude": 37.59424973, "longitude": 127.0765762, "type": "LCD", "category": "자전거"},
  {"id": "119", "name": "동일로 지하차도", "address": "서울특별시 중랑구 망우로 233 중랑구 중화동 211-3", "latitude": 37.59529877, "longitude": 127.0800324, "type": "LCD", "category": "자전거"},
  {"id": "120", "name": "망우역 1번출구", "address": "서울특별시 중랑구 망우로55길 11-10 망우역 1번출구", "latitude": 37.59909821, "longitude": 127.0929489, "type": "LCD", "category": "자전거"},
  {"id": "121", "name": "먹골역 1번출구 뒤", "address": "서울특별시 중랑구 공릉로 12 중랑구 묵동 189-4", "latitude": 37.61151123, "longitude": 127.0778885, "type": "LCD", "category": "자전거"},
  {"id": "122", "name": "먹골역 6번출구 앞", "address": "서울특별시 중랑구 동일로 지하 901 먹골역 6번출구 앞", "latitude": 37.61072159, "longitude": 127.0774765, "type": "LCD", "category": "자전거"},
  {"id": "123", "name": "면목 대원칸타빌아파트", "address": "서울특별시 중랑구 용마산로 285 581 번지", "latitude": 37.57778168, "longitude": 127.0901871, "type": "LCD", "category": "자전거"},
  {"id": "124", "name": "상봉시장앞 교차로 한성빌딩 앞", "address": "서울특별시 중랑구 면목로 456 중랑구 면목동 282-4", "latitude": 37.59254074, "longitude": 127.0867386, "type": "LCD", "category": "자전거"},
  {"id": "125", "name": "사가정역 2번출구", "address": "서울특별시 중랑구 면목로 325", "latitude": 37.58098984, "longitude": 127.0882416, "type": "QR", "category": "자전거"},
  {"id": "126", "name": "상봉역 3번출구", "address": "서울특별시 중랑구 면목로 480 중랑구 상봉동 160-22", "latitude": 37.59521866, "longitude": 127.0859985, "type": "LCD", "category": "자전거"},
  {"id": "127", "name": "새솔초등학교", "address": "서울특별시 중랑구 신내역로1길 164 새솔초등학교", "latitude": 37.61743927, "longitude": 127.1090164, "type": "LCD", "category": "자전거"},
  {"id": "128", "name": "신내어울공원 앞", "address": "서울특별시 중랑구 신내로16길 33 신내동 의료안심주택", "latitude": 37.61394501, "longitude": 127.097702, "type": "LCD", "category": "자전거"},
  {"id": "129", "name": "신내역 4번출구", "address": "서울특별시 중랑구 신내로 지하 232 신내역 4번출구", "latitude": 37.61246109, "longitude": 127.1033783, "type": "LCD", "category": "자전거"},
  {"id": "130", "name": "신내우디안아파트 1단지", "address": "서울특별시 중랑구 신내역로 213 신내우디안아파트 1단지", "latitude": 37.62009811, "longitude": 127.1064606, "type": "LCD", "category": "자전거"},
  {"id": "131", "name": "양원역 2번출구", "address": "서울특별시 중랑구 송림길 147 양원역 2번출구", "latitude": 37.6063118, "longitude": 127.1077423, "type": "LCD", "category": "자전거"},
  {"id": "132", "name": "신성미소지움아파트", "address": "서울특별시 중랑구 용마산로86길 9-27 용마문화복지센터", "latitude": 37.58745956, "longitude": 127.0959702, "type": "LCD", "category": "자전거"},
  {"id": "133", "name": "면목도시개발아파트 1동 앞", "address": "서울특별시 중랑구 용마산로 지하 227 면목도시개발아파트 1동 앞", "latitude": 37.57358932, "longitude": 127.0868225, "type": "LCD", "category": "자전거"},
  {"id": "134", "name": "용마산역 1번출구", "address": "서울특별시 중랑구 용마산로 지하 227 중랑구 면목동 1381", "latitude": 37.57429886, "longitude": 127.0869141, "type": "LCD", "category": "자전거"},
  {"id": "135", "name": "원묵고등학교", "address": "서울특별시 중랑구 숙선옹주로 66 중랑구 묵동 20-3", "latitude": 37.61602402, "longitude": 127.085968, "type": "LCD", "category": "자전거"},
  {"id": "136", "name": "장안중학교", "address": "서울특별시 중랑구 동일로 778 동일로 778", "latitude": 37.59995651, "longitude": 127.0800018, "type": "LCD", "category": "자전거"},
  {"id": "137", "name": "중랑구청", "address": "서울특별시 중랑구 봉화산로 179 중랑구 신내동 662-1", "latitude": 37.60615158, "longitude": 127.092598, "type": "LCD", "category": "자전거"},
  {"id": "138", "name": "중랑구청 사거리", "address": "서울특별시 중랑구 봉화산로 194 중랑구 신내동 561", "latitude": 37.60649872, "longitude": 127.0954514, "type": "LCD", "category": "자전거"},
  {"id": "139", "name": "중화역 2번출구", "address": "서울특별시 중랑구 동일로 지하 797 중랑구 중화동 50-3", "latitude": 37.60207748, "longitude": 127.0795822, "type": "LCD", "category": "자전거"},
  {"id": "140", "name": "능산삼거리", "address": "서울특별시 중랑구 용마산로 644 능산삼거리", "latitude": 37.60868073, "longitude": 127.1007919, "type": "LCD", "category": "자전거"},
  {"id": "141", "name": "동원베네스트 건물 앞", "address": "서울특별시 중랑구 용마산로 640", "latitude": 37.60810089, "longitude": 127.101181, "type": "LCD", "category": "자전거"},
  {"id": "142", "name": "늘푸른공원 앞", "address": "서울특별시 중랑구 동일로 594 늘푸른공원 앞", "latitude": 37.5834198, "longitude": 127.0799255, "type": "LCD", "category": "자전거"},
  {"id": "143", "name": "홈플러스 신내점 앞", "address": "서울특별시 중랑구 신내로 지하 232 홈플러스 신내점 앞", "latitude": 37.61616898, "longitude": 127.093483, "type": "LCD", "category": "자전거"},
  {"id": "144", "name": "면목2동 사거리", "address": "서울특별시 중랑구 동일로 628 하나은행", "latitude": 37.58637238, "longitude": 127.0800705, "type": "LCD", "category": "자전거"},
  {"id": "145", "name": "신내능말공원", "address": "서울특별시 중랑구 신내역로 165 신내 데시앙포레", "latitude": 37.61670685, "longitude": 127.11026, "type": "LCD", "category": "자전거"},
  {"id": "146", "name": "중랑구 중소기업 창업센터", "address": "서울특별시 중화동 50-8 (구)신한은행 중랑교지점", "latitude": 37.59859085, "longitude": 127.0798187, "type": "LCD", "category": "자전거"},
  {"id": "147", "name": "면목4치안센터", "address": "서울특별시 면목동 646-4 면목4치안센터", "latitude": 37.57402802, "longitude": 127.0805435, "type": "LCD", "category": "자전거"},
  {"id": "148", "name": "용마지구대 A", "address": "서울특별시 면목동 197-5 용마지구대", "latitude": 37.5799408, "longitude": 127.0793991, "type": "LCD", "category": "자전거"},
  {"id": "149", "name": "중랑전화국 교차로", "address": "서울특별시 중랑구 면목동 282-8 중랑전화국 교차로", "latitude": 37.59130096, "longitude": 127.0803299, "type": "LCD", "category": "자전거"},
  {"id": "150", "name": "면목역 3번출구", "address": "서울특별시 면목동 120-2 면목역 3번출구", "latitude": 37.58890152, "longitude": 127.0872803, "type": "LCD", "category": "자전거"},
  {"id": "151", "name": "코스트코 상봉점", "address": "서울특별시 상봉동 160-3 코스트코 상봉점", "latitude": 37.59732056, "longitude": 127.089798, "type": "LCD", "category": "자전거"},
  {"id": "152", "name": "상봉역 1번출구", "address": "서울특별시 중랑구 망우로 297 상봉역 1번출구", "latitude": 37.59655762, "longitude": 127.0858383, "type": "LCD", "category": "자전거"},
  {"id": "153", "name": "화랑대역 7번출구", "address": "서울특별시 중랑구 묵동 6-3", "latitude": 37.61963654, "longitude": 127.0850449, "type": "LCD", "category": "자전거"},
  {"id": "154", "name": "중랑세무서", "address": "서울특별시 중랑구 망우로 176 중랑세무서", "latitude": 37.59275818, "longitude": 127.07267, "type": "LCD", "category": "자전거"},
  {"id": "155", "name": "겸재교 진입부", "address": "서울특별시 중랑구 겸재로 68 겸재교진입부", "latitude": 37.58565521, "longitude": 127.0750504, "type": "LCD", "category": "자전거"},
  {"id": "156", "name": "중랑캠핑숲", "address": "서울특별시 중랑구 송림길 172 중랑캠핑숲", "latitude": 37.60460281, "longitude": 127.1092529, "type": "LCD", "category": "자전거"},
  {"id": "157", "name": "한국전력공사(동대문 중랑지사)", "address": "서울특별시 중랑구 동일로 862 한국전력공사(동대문 중랑지사)", "latitude": 37.6073494, "longitude": 127.0785904, "type": "LCD", "category": "자전거"},
  {"id": "158", "name": "상봉역 2번 출구", "address": "서울특별시 중랑구 망우로 297 상봉역 2번 출구", "latitude": 37.59632874, "longitude": 127.0858994, "type": "LCD", "category": "자전거"},
  {"id": "159", "name": "상아빌딩(우림시장 교차로)", "address": "서울특별시 중랑구 용마산로 494 상아빌딩(우림시장 교차로)", "latitude": 37.59511185, "longitude": 127.1003265, "type": "LCD", "category": "자전거"},
  {"id": "160", "name": "동원사거리", "address": "서울특별시 중랑구 겸재로 229 동원사거리", "latitude": 37.58975983, "longitude": 127.0932388, "type": "LCD", "category": "자전거"},
  {"id": "161", "name": "상봉터미널2", "address": "서울특별시 중랑구 용마산로115길 127 용마산로115길 127", "latitude": 37.59733963, "longitude": 127.0930862, "type": "QR", "category": "자전거"},
  {"id": "162", "name": "용마한신아파트사거리", "address": "서울특별시 중랑구 용마산로 313 용마한신아파트사거리", "latitude": 37.58034897, "longitude": 127.0926514, "type": "LCD", "category": "자전거"},
  {"id": "163", "name": "동양엔파트 앞", "address": "서울특별시 중랑구 망우로 203 중화동주상복합", "latitude": 37.593853, "longitude": 127.0750732, "type": "QR", "category": "자전거"},
  {"id": "164", "name": "동부시장 북문 앞", "address": "서울특별시 중랑구 망우로 214 우도빌딩", "latitude": 37.59386826, "longitude": 127.0765228, "type": "QR", "category": "자전거"},
  {"id": "165", "name": "중랑구민회관", "address": "서울특별시 중랑구 면목로 238 중랑구민회관", "latitude": 37.57407761, "longitude": 127.0850067, "type": "QR", "category": "자전거"},
  {"id": "166", "name": "중화역 4번출구", "address": "서울특별시 중랑구 동일로 815", "latitude": 37.60305405, "longitude": 127.0790024, "type": "QR", "category": "자전거"},
  {"id": "167", "name": "두산대림아파트 삼거리", "address": "서울특별시 중랑구 신내로23길 9 묵동근생빌딩", "latitude": 37.61882401, "longitude": 127.0875702, "type": "QR", "category": "자전거"},
  {"id": "168", "name": "sk신내 주유소앞(용마산로)", "address": "서울특별시 중랑구 신내동 353-2", "latitude": 37.61362076, "longitude": 127.1011505, "type": "QR", "category": "자전거"},
  {"id": "169", "name": "먹골역 7번 출구", "address": "서울특별시 중랑구 동일로 901 먹골역", "latitude": 37.6114769, "longitude": 127.0773926, "type": "QR", "category": "자전거"},
  {"id": "170", "name": "먹골역 4번출구", "address": "서울특별시 중랑구 동일로 890", "latitude": 37.60982132, "longitude": 127.0781326, "type": "QR", "category": "자전거"},
  {"id": "171", "name": "중화동 우리은행 앞", "address": "서울특별시 중랑구 동일로 837 우리은행", "latitude": 37.60520172, "longitude": 127.0785828, "type": "QR", "category": "자전거"},
  {"id": "172", "name": "동양쇼핑 정류소 앞", "address": "서울특별시 중랑구 묵동 190-2", "latitude": 37.61535263, "longitude": 127.0784912, "type": "QR", "category": "자전거"},
  {"id": "173", "name": "영성빌딩(PAT)", "address": "서울특별시 중랑구 동일로 824 신성빌딩", "latitude": 37.60408401, "longitude": 127.0792313, "type": "QR", "category": "자전거"},
  {"id": "174", "name": "중랑역 1번 출구(중화문화복지센터)", "address": "서울특별시 중랑구 중화동 321-129", "latitude": 37.59489059, "longitude": 127.0749512, "type": "QR", "category": "자전거"},
  {"id": "175", "name": "서울중랑우체국", "address": "서울특별시 중랑구 망우로 271 서울중랑우체국", "latitude": 37.59581375, "longitude": 127.08284, "type": "QR", "category": "자전거"},
  {"id": "176", "name": "면목삼익아파트 앞", "address": "서울특별시 중랑구 동일로 501 면목삼익아파트", "latitude": 37.57598495, "longitude": 127.0796051, "type": "QR", "category": "자전거"},
  {"id": "177", "name": "홈플러스 상봉점 앞", "address": "서울특별시 중랑구 상봉동 500-1", "latitude": 37.59832764, "longitude": 127.0922699, "type": "QR", "category": "자전거"},
  {"id": "178", "name": "면목 홈플러스 2", "address": "서울특별시 중랑구 사가정로 326 중랑구 실향민협의회", "latitude": 37.58105469, "longitude": 127.0820923, "type": "QR", "category": "자전거"},
  {"id": "179", "name": "용마지구대 B", "address": "서울특별시 중랑구 동일로 566 중랑경찰서용마지구대", "latitude": 37.58111191, "longitude": 127.080101, "type": "QR", "category": "자전거"},
  {"id": "180", "name": "새우개마을", "address": "서울특별시 중랑구 신내동278-50", "latitude": 37.61571121, "longitude": 127.1010437, "type": "QR", "category": "자전거"},
  {"id": "181", "name": "상봉2동 주민센터 앞", "address": "서울특별시 중랑구 상봉동 126-42", "latitude": 37.59287262, "longitude": 127.0803299, "type": "QR", "category": "자전거"},
  {"id": "182", "name": "동서울농협 앞", "address": "서울특별시 중랑구 망우로 290", "latitude": 37.59596252, "longitude": 127.0847778, "type": "QR", "category": "자전거"},
  {"id": "183", "name": "라코지스테이 앞", "address": "서울특별시 중랑구 망우로232", "latitude": 37.59432602, "longitude": 127.0784607, "type": "QR", "category": "자전거"},
  {"id": "184", "name": "신내2동 주민센터 앞", "address": "서울특별시 중랑구 봉화산로 190", "latitude": 37.60641098, "longitude": 127.0940476, "type": "QR", "category": "자전거"},
  {"id": "185", "name": "동성1,2차 아파트 앞", "address": "서울특별시 중랑구 신내로 126 동성아파트", "latitude": 37.61022568, "longitude": 127.096283, "type": "QR", "category": "자전거"},
  {"id": "186", "name": "한양수자인아파트 앞", "address": "서울특별시 중랑구 면목동 1085-1", "latitude": 37.58032227, "longitude": 127.0941544, "type": "QR", "category": "자전거"},
  {"id": "187", "name": "묵동 이마트 앞", "address": "서울특별시 중랑구 묵동 170-45", "latitude": 37.6132164, "longitude": 127.0773468, "type": "QR", "category": "자전거"},
  {"id": "188", "name": "망우지구대", "address": "서울특별시 중랑구 망우로 400", "latitude": 37.59877777, "longitude": 127.0963898, "type": "QR", "category": "자전거"},
  {"id": "189", "name": "중랑데시앙플렉스 앞", "address": "서울 중랑구 신내역로3길 40-36", "latitude": 37.61755371, "longitude": 127.1039963, "type": "QR", "category": "자전거"},
  {"id": "190", "name": "면목동 새싹어린이공원 앞", "address": "서울특별시 중랑구 동일로92길 57", "latitude": 37.58333206, "longitude": 127.0835495, "type": "QR", "category": "자전거"},
  {"id": "191", "name": "망우역 2번 출구", "address": "서울특별시 중랑구 망우로55길 11-10(상봉동)", "latitude": 37.60025406, "longitude": 127.091713, "type": "QR", "category": "자전거"},
  {"id": "192", "name": "방정환교육지원센터 옆", "address": "서울특별시 중랑구 망우로 325(상봉동)", "latitude": 37.59780884, "longitude": 127.0884476, "type": "QR", "category": "자전거"},
  {"id": "193", "name": "신내동 벽산아파트 후문 앞", "address": "서울특별시 중랑구 용마산로125길 50 벽산아파트", "latitude": 37.6030426, "longitude": 127.100502, "type": "QR", "category": "자전거"},
  {"id": "194", "name": "신내동 한살림 중랑지구 앞", "address": "서울특별시 중랑구 신내동 574-1", "latitude": 37.60428619, "longitude": 127.0973663, "type": "QR", "category": "자전거"},
  {"id": "195", "name": "신내동 한살림 중랑지구 건너편", "address": "서울특별시 중랑구 신내동 574-1", "latitude": 37.60446167, "longitude": 127.0974121, "type": "QR", "category": "자전거"},
  {"id": "196", "name": "상봉신협 앞", "address": "서울특별시 중랑구 봉우재로41길 6 청운명가프라임", "latitude": 37.59354401, "longitude": 127.0897903, "type": "QR", "category": "자전거"},
  {"id": "197", "name": "홈플러스 면목점", "address": "서울특별시 중랑구 동일로 540", "latitude": 37.57984543, "longitude": 127.0824204, "type": "QR", "category": "자전거"},
  {"id": "198", "name": "신내SK V1센터 앞", "address": "서울특별시 중랑구 신내역로 111", "latitude": 37.6127243, "longitude": 127.11306, "type": "QR", "category": "자전거"},
  {"id": "199", "name": "용마복지센터 앞", "address": "서울특별시 중랑구 용마산로 393", "latitude": 37.58686447, "longitude": 127.0953217, "type": "QR", "category": "자전거"},
  {"id": "200", "name": "망우동 본죽 앞", "address": "서울특별시 중랑구 망우로 467", "latitude": 37.60064316, "longitude": 127.1040497, "type": "QR", "category": "자전거"},
  {"id": "201", "name": "양원역 1번 출구", "address": "서울특별시 중랑구 망우동 253-18", "latitude": 37.60655212, "longitude": 127.1070862, "type": "QR", "category": "자전거"},
  {"id": "202", "name": "양원지구 힐데스하임 앞", "address": "서울특별시 중랑구 봉화산로 301", "latitude": 37.60924149, "longitude": 127.1062088, "type": "QR", "category": "자전거"},
  {"id": "203", "name": "동원사거리 행복오피스텔 앞", "address": "서울특별시 중랑구 겸재로 240 행복오피스텔", "latitude": 37.58973694, "longitude": 127.0941925, "type": "QR", "category": "자전거"},
  {"id": "204", "name": "서울시 북부병원 앞", "address": "서울특별시 중랑구 양원역로 38 서울시북부병원 및 시립중랑노인전문요양원", "latitude": 37.60405731, "longitude": 127.107254, "type": "QR", "category": "자전거"},
  {"id": "205", "name": "신내 우디안 111동 앞", "address": "서울특별시 중랑구 신내역로1길 85 신내우디안1단지", "latitude": 37.61727142, "longitude": 127.1085434, "type": "QR", "category": "자전거"},
  {"id": "206", "name": "중화수경공원", "address": "중랑구 중화동 381-3", "latitude": 37.60318375, "longitude": 127.0741348, "type": "QR", "category": "자전거"},
  {"id": "207", "name": "면목라온프라이빗 아파트", "address": "중랑구 면목동197-4", "latitude": 37.58267593, "longitude": 127.0776596, "type": "QR", "category": "자전거"},
  {"id": "208", "name": "봉화산역 4번 출구", "address": "중랑구 신내동629-2", "latitude": 37.61738586, "longitude": 127.0907822, "type": "QR", "category": "자전거"},
  {"id": "209", "name": "신내역금강펜테리움센트럴파크", "address": "중랑구 망우동 611", "latitude": 37.60910034, "longitude": 127.1116028, "type": "QR", "category": "자전거"},
  {"id": "210", "name": "한성대입구역6번출구 뒤", "address": "서울특별시 성북구 동소문로 1 한성대입구역6번출구 뒤", "latitude": 37.58876419, "longitude": 127.0063095, "type": "LCD", "category": "자전거"},
  {"id": "211", "name": "돈암초교 입구", "address": "서울특별시 성북구 동소문로13길 38 돈암초교", "latitude": 37.59169388, "longitude": 127.012497, "type": "LCD", "category": "자전거"},
  {"id": "212", "name": "만해공원", "address": "서울특별시 성북구 성북로 132-1 만해공원", "latitude": 37.59440231, "longitude": 126.9923096, "type": "LCD", "category": "자전거"},
  {"id": "213", "name": "성북구청", "address": "서울특별시 성북구 보문로 168 성북구청", "latitude": 37.58932877, "longitude": 127.0164337, "type": "LCD", "category": "자전거"},
  {"id": "214", "name": "한성대입구역2번출구", "address": "서울특별시 성북구 동소문로 2 성북구 동소문동2가 2-3", "latitude": 37.58844757, "longitude": 127.0067062, "type": "QR", "category": "자전거"},
  {"id": "215", "name": "안암로터리 버스정류장 앞", "address": "서울특별시 성북구 안암로 69 안암로터리 버스정류장", "latitude": 37.58259201, "longitude": 127.0289764, "type": "LCD", "category": "자전거"},
  {"id": "216", "name": "정릉꿈에그린1단지 201동 앞", "address": "서울특별시 성북구 아리랑로19길 20 성북구 정릉동 966-62", "latitude": 37.60243988, "longitude": 127.0116882, "type": "LCD", "category": "자전거"},
  {"id": "217", "name": "고려사대부속중고 정문", "address": "서울특별시 성북구 보국문로29길 23 성북구 정릉동 966-1", "latitude": 37.60776138, "longitude": 127.0032806, "type": "LCD", "category": "자전거"},
  {"id": "218", "name": "고려사대부속중고 건너편", "address": "서울특별시 성북구 보국문로29길 23 성북구 정릉동 966-1", "latitude": 37.60726166, "longitude": 127.0028381, "type": "LCD", "category": "자전거"},
  {"id": "219", "name": "길음역 3번출구 뒤", "address": "서울특별시 성북구 동소문로 248 동소문로248", "latitude": 37.60308456, "longitude": 127.0247879, "type": "LCD", "category": "자전거"},
  {"id": "220", "name": "종암사거리 분수대", "address": "서울특별시 성북구 종암로 147 성북구 하월곡동 104-134", "latitude": 37.6030426, "longitude": 127.0332718, "type": "QR", "category": "자전거"},
  {"id": "221", "name": "국민은행 종암동지점 앞", "address": "서울특별시 성북구 종암로3길 37-2 성북구 종암동 12-33", "latitude": 37.59328842, "longitude": 127.0366669, "type": "LCD", "category": "자전거"},
  {"id": "222", "name": "래미안라센트아파트 103동 앞", "address": "서울특별시 성북구 종암로3길 37-2 성북구 종암동 12-33", "latitude": 37.59806824, "longitude": 127.0392761, "type": "LCD", "category": "자전거"},
  {"id": "223", "name": "상월곡역 4번출구", "address": "서울특별시 성북구 화랑로 148 성북구 상월곡동 산7-1", "latitude": 37.60580826, "longitude": 127.0477371, "type": "LCD", "category": "자전거"},
  {"id": "224", "name": "상월곡역 1번출구", "address": "서울특별시 성북구 화랑로 지하 157 성북구 상월곡동 35-9", "latitude": 37.60606766, "longitude": 127.0473175, "type": "LCD", "category": "자전거"},
  {"id": "225", "name": "상월곡역 3번출구", "address": "서울특별시 성북구 화랑로 지하 157 성북구 상월곡동 26-1", "latitude": 37.60734177, "longitude": 127.0506821, "type": "LCD", "category": "자전거"},
  {"id": "226", "name": "월곡역 3번출구", "address": "서울특별시 성북구 월곡로 지하 107 성북구 하월곡동 37-4", "latitude": 37.6026268, "longitude": 127.0416336, "type": "LCD", "category": "자전거"},
  {"id": "227", "name": "석계역 5번출구 건너편", "address": "서울특별시 노원구 화랑로 지하 347-1 성북구 석관동 134-4", "latitude": 37.61355591, "longitude": 127.0660934, "type": "LCD", "category": "자전거"},
  {"id": "228", "name": "석관초등학교 앞", "address": "서울특별시 성북구 돌곶이로22길 21 성북구 석관동 202-3", "latitude": 37.61052322, "longitude": 127.0597992, "type": "LCD", "category": "자전거"},
  {"id": "229", "name": "석관동주민센터 앞", "address": "서울특별시 성북구 화랑로 296 성북구 석관동 384-2", "latitude": 37.61299896, "longitude": 127.0613098, "type": "LCD", "category": "자전거"},
  {"id": "230", "name": "성북3교 위", "address": "서울특별시 성북구 보문로 192 성북3교 위", "latitude": 37.59125137, "longitude": 127.0140076, "type": "LCD", "category": "자전거"},
  {"id": "231", "name": "돈암성당 옆", "address": "서울특별시 성북구 인촌로7길 120 돈암성당 옆", "latitude": 37.59038162, "longitude": 127.0171356, "type": "LCD", "category": "자전거"},
  {"id": "232", "name": "용문2교 옆", "address": "서울특별시 성북구 인촌로7길 24 용문2교 옆", "latitude": 37.5868988, "longitude": 127.020752, "type": "LCD", "category": "자전거"},
  {"id": "233", "name": "삼성전자서비스 성북센터", "address": "서울특별시 성북구 월계로 28 삼성전자서비스 성북센터", "latitude": 37.610569, "longitude": 127.0335083, "type": "LCD", "category": "자전거"},
  {"id": "234", "name": "광운초등학교 앞", "address": "서울특별시 성북구 장위동 134-27", "latitude": 37.61784363, "longitude": 127.0550003, "type": "LCD", "category": "자전거"},
  {"id": "235", "name": "성북쉼터 앞", "address": "서울특별시 성북구 성북로21길 32 성북쉼터 앞", "latitude": 37.59261703, "longitude": 126.9979324, "type": "LCD", "category": "자전거"},
  {"id": "236", "name": "한성대7번출구 앞", "address": "서울특별시 성북구 동소문로 11 한성대7번출구 앞", "latitude": 37.58924866, "longitude": 127.0073776, "type": "LCD", "category": "자전거"},
  {"id": "237", "name": "아리랑시네센터 앞", "address": "서울특별시 성북구 아리랑로 82 아리랑시네센터 앞", "latitude": 37.60028839, "longitude": 127.0137024, "type": "LCD", "category": "자전거"},
  {"id": "238", "name": "길음8골어린이공원 옆", "address": "서울특별시 성북구 길음로13길 22 길음8골어린이공원 옆", "latitude": 37.60897827, "longitude": 127.0202484, "type": "LCD", "category": "자전거"},
  {"id": "239", "name": "길음래미안아파트817동 상가 앞", "address": "서울특별시 성북구 길음로 33 길음래미안아파트817동 상가 앞", "latitude": 37.60710526, "longitude": 127.0214996, "type": "LCD", "category": "자전거"},
  {"id": "240", "name": "성북제일새마을금고 본점 앞", "address": "서울특별시 성북구 길음로 20 성북제일새마을금고 본점 앞", "latitude": 37.60475159, "longitude": 127.0227585, "type": "LCD", "category": "자전거"},
  {"id": "241", "name": "월계2교 버스정류장 앞", "address": "서울특별시 성북구 한천로101길 18 월계2교 버스정유장 앞", "latitude": 37.62382889, "longitude": 127.0502014, "type": "LCD", "category": "자전거"},
  {"id": "242", "name": "안암2교 옆", "address": "서울특별시 성북구 안암로 17 SK제삼주유소 앞", "latitude": 37.5794487, "longitude": 127.0241928, "type": "LCD", "category": "자전거"},
  {"id": "243", "name": "e 편한세상 보문아파트 내", "address": "서울특별시 성북구 낙산길 255 e 편한세상 보문아파트 내", "latitude": 37.58388138, "longitude": 127.0170975, "type": "LCD", "category": "자전거"},
  {"id": "244", "name": "금호어울림센터힐 내", "address": "서울특별시 성북구 동소문로34길 73 금호어울림센터힐 내", "latitude": 37.60083008, "longitude": 127.0235519, "type": "LCD", "category": "자전거"},
  {"id": "245", "name": "고려대학교 2번출구", "address": "서울특별시 성북구 종암로 지하 1 고려대학교 2번출구", "latitude": 37.5907135, "longitude": 127.0361939, "type": "LCD", "category": "자전거"},
  {"id": "246", "name": "보문2교", "address": "서울특별시 성북구 보문로30길 29 보문2교", "latitude": 37.58869934, "longitude": 127.0189133, "type": "LCD", "category": "자전거"},
  {"id": "247", "name": "북한산보국문역", "address": "서울특별시 성북구 보국문로 91 북한산보국문역", "latitude": 37.61207199, "longitude": 127.0081329, "type": "LCD", "category": "자전거"},
  {"id": "248", "name": "정릉도서관 앞", "address": "서울특별시 성북구 보국문로 7-10 정릉도서관 앞", "latitude": 37.60478973, "longitude": 127.010582, "type": "LCD", "category": "자전거"},
  {"id": "249", "name": "정릉역", "address": "서울특별시 성북구 정릉로 272 정릉역", "latitude": 37.60309601, "longitude": 127.013504, "type": "LCD", "category": "자전거"},
  {"id": "250", "name": "홍익중고 입구", "address": "서울특별시 성북구 성북동 142-1", "latitude": 37.59296799, "longitude": 127.0022354, "type": "LCD", "category": "자전거"},
  {"id": "251", "name": "보문역6번출구 앞", "address": "서울특별시 성북구 보문로 112-2", "latitude": 37.58519745, "longitude": 127.0196686, "type": "QR", "category": "자전거"},
  {"id": "252", "name": "보문4교 인근", "address": "서울특별시 성북구 보문로22길 28 보문4교 인근", "latitude": 37.58375168, "longitude": 127.0219498, "type": "LCD", "category": "자전거"},
  {"id": "253", "name": "성북동 치안센터 앞", "address": "서울특별시 성북구 성북로 25 성북동 치안센터 앞", "latitude": 37.59017181, "longitude": 127.0040894, "type": "LCD", "category": "자전거"},
  {"id": "254", "name": "선잠단지 앞", "address": "서울특별시 성북구 성북로 102-10 선잠단지 앞", "latitude": 37.5933609, "longitude": 126.9990921, "type": "LCD", "category": "자전거"},
  {"id": "255", "name": "일신초등학교 옆", "address": "서울특별시 성북구 월곡로 74 일신초등학교 옆", "latitude": 37.59972, "longitude": 127.0403824, "type": "LCD", "category": "자전거"},
  {"id": "256", "name": "길음문화복합미디어센터", "address": "서울특별시 성북구 길음로7길 6 길음뉴타운9단지래미안 상가", "latitude": 37.60429764, "longitude": 127.0226135, "type": "LCD", "category": "자전거"},
  {"id": "257", "name": "성신여대입구 교차로", "address": "서울특별시 성북구 보문로34길 87 성신여대입구 교차로", "latitude": 37.59139633, "longitude": 127.0201569, "type": "LCD", "category": "자전거"},
  {"id": "258", "name": "복자사랑 피정의 집", "address": "서울특별시 성북구 성북로 132-4 복자사랑 피정의 집", "latitude": 37.59453964, "longitude": 126.9952087, "type": "LCD", "category": "자전거"},
  {"id": "259", "name": "KEB은행 고대점", "address": "서울특별시 성북구 인촌로 113 KEB은행 고대점", "latitude": 37.58644485, "longitude": 127.031601, "type": "QR", "category": "자전거"},
  {"id": "260", "name": "성북구보건소 건너편", "address": "서울특별시 성북구 화랑로 63 성북구보건소 건너편", "latitude": 37.60235596, "longitude": 127.0390778, "type": "QR", "category": "자전거"},
  {"id": "261", "name": "생명의 전화 종합복지관 앞 교차로", "address": "서울특별시 성북구 오패산로 21 생명의 전화 종합복지관 앞 교차로", "latitude": 37.60390854, "longitude": 127.0373764, "type": "LCD", "category": "자전거"},
  {"id": "262", "name": "한국과학기술연구원 중문", "address": "서울특별시 성북구 화랑로14길 5 한국과학기술연구원 정문", "latitude": 37.59730911, "longitude": 127.0437851, "type": "QR", "category": "자전거"},
  {"id": "263", "name": "한국과학기술연구원 북문", "address": "서울특별시 성북구 화랑로14길 5 한국과학기술연구원 후문", "latitude": 37.60418701, "longitude": 127.0454941, "type": "LCD", "category": "자전거"},
  {"id": "264", "name": "길음뉴타운푸르지오아파트 3단지", "address": "서울특별시 성북구 길음로13길 39 길음뉴타운", "latitude": 37.60929489, "longitude": 127.0184784, "type": "QR", "category": "자전거"},
  {"id": "265", "name": "월곡역 5번출구 앞", "address": "서울특별시 성북구 하월곡동 96-248", "latitude": 37.60108566, "longitude": 127.0412369, "type": "QR", "category": "자전거"},
  {"id": "266", "name": "석계역 4번출구 뒤", "address": "서울특별시 성북구 석관동 375-97", "latitude": 37.61478424, "longitude": 127.0670013, "type": "QR", "category": "자전거"},
  {"id": "267", "name": "래미안월곡아파트 입구", "address": "서울특별시 성북구 하월곡동 225-5", "latitude": 37.60866547, "longitude": 127.0362701, "type": "QR", "category": "자전거"},
  {"id": "268", "name": "성신여대입구역 5번출구", "address": "서울특별시 성북구 동소문동6가 140-5", "latitude": 37.59282684, "longitude": 127.0162888, "type": "QR", "category": "자전거"},
  {"id": "269", "name": "성신여대입구역 3번출구 앞", "address": "서울특별시 성북구 동소문로 98 제일은행", "latitude": 37.59236526, "longitude": 127.0162888, "type": "QR", "category": "자전거"},
  {"id": "270", "name": "동선고가차도 초입", "address": "서울특별시 성북구 동소문로 130", "latitude": 37.59415817, "longitude": 127.0189667, "type": "QR", "category": "자전거"},
  {"id": "271", "name": "돈암초교입구 버스정류장(한성대입구역 방면)", "address": "서울특별시 성북구 동소문동3가 66-1", "latitude": 37.59088135, "longitude": 127.0117035, "type": "QR", "category": "자전거"},
  {"id": "272", "name": "석관래미안아트리치", "address": "서울특별시 성북구 석관동 323-2", "latitude": 37.60646057, "longitude": 127.0616226, "type": "QR", "category": "자전거"},
  {"id": "273", "name": "성북청소년센터", "address": "서울특별시 성북구 장위동 322-8", "latitude": 37.61688232, "longitude": 127.0560684, "type": "QR", "category": "자전거"},
  {"id": "274", "name": "돈암삼성풍림아파트", "address": "서울특별시 성북구 돈암동 632-6", "latitude": 37.5970993, "longitude": 127.0226288, "type": "QR", "category": "자전거"},
  {"id": "275", "name": "돈암육교 하단", "address": "서울특별시 성북구 돈암동 51-10", "latitude": 37.59818268, "longitude": 127.0211792, "type": "QR", "category": "자전거"},
  {"id": "276", "name": "길음뉴타운 래미안9단지", "address": "서울특별시 성북구 정릉로 243", "latitude": 37.60242462, "longitude": 127.0199814, "type": "QR", "category": "자전거"},
  {"id": "277", "name": "래미안장위포레카운티(102동)", "address": "서울특별시 성북구 장위동 143-12", "latitude": 37.61817932, "longitude": 127.0518341, "type": "QR", "category": "자전거"},
  {"id": "278", "name": "래미안장위퍼스트하이(513동)", "address": "서울특별시 성북구 장위동 201-6", "latitude": 37.61844254, "longitude": 127.0514526, "type": "QR", "category": "자전거"},
  {"id": "279", "name": "장곡초등학교 앞", "address": "서울특별시 성북구 장위동 237-132", "latitude": 37.61745453, "longitude": 127.0484467, "type": "QR", "category": "자전거"},
  {"id": "280", "name": "돌곶이역 앞", "address": "서울특별시 성북구 화랑로 지하 243", "latitude": 37.61131287, "longitude": 127.0575943, "type": "QR", "category": "자전거"},
  {"id": "281", "name": "동산어린이공원 앞", "address": "서울특별시 성북구 성북구 하월곡동 96-78", "latitude": 37.60623932, "longitude": 127.0346603, "type": "QR", "category": "자전거"},
  {"id": "282", "name": "안암역 3번 출구", "address": "서울특별시 성북구 고려대로 104-1", "latitude": 37.58625031, "longitude": 127.0309525, "type": "QR", "category": "자전거"},
  {"id": "283", "name": "미아초교버스승강장", "address": "서울특별시 성북구 성북구 길음동 1261-535", "latitude": 37.61207962, "longitude": 127.0219803, "type": "QR", "category": "자전거"},
  {"id": "284", "name": "성북청소년문화의집", "address": "서울특별시 성북구 성북구 솔샘로 107", "latitude": 37.61566925, "longitude": 127.0087662, "type": "QR", "category": "자전거"},
  {"id": "285", "name": "종암동 동덕여대 제2생활관 앞", "address": "서울특별시 성북구 성북구 종암로 123", "latitude": 37.60108948, "longitude": 127.0333176, "type": "QR", "category": "자전거"},
  {"id": "286", "name": "성북구 한예종 캠퍼스 본관", "address": "서울특별시 성북구 화랑로32길 146-37 한국예술종합학교", "latitude": 37.60665131, "longitude": 127.0561829, "type": "QR", "category": "자전거"},
  {"id": "287", "name": "성북구 한예종 캠퍼스 별관", "address": "서울특별시 성북구 화랑로32길 146-20 문화재청의릉지구관리소", "latitude": 37.60289764, "longitude": 127.0584793, "type": "QR", "category": "자전거"},
  {"id": "288", "name": "롯데캐슬클라시아 입구 앞", "address": "서울특별시 성북구 길음동 1289-3", "latitude": 37.6069603, "longitude": 127.0260696, "type": "QR", "category": "자전거"},
  {"id": "289", "name": "현대백화점 미아점", "address": "성북구 길음동 20-1", "latitude": 37.60884857, "longitude": 127.0284576, "type": "QR", "category": "자전거"},
  {"id": "290", "name": "하늘채코오롱아파트 앞", "address": "성북구 돌곶이로 220", "latitude": 37.61924744, "longitude": 127.0455856, "type": "QR", "category": "자전거"},
  {"id": "291", "name": "미아역 3번,4번 출구 사이", "address": "서울특별시 강북구 도봉로 196 미아역 3,4번 출구 사이", "latitude": 37.62607956, "longitude": 127.0264816, "type": "LCD", "category": "자전거"},
  {"id": "292", "name": "강북구청사거리(수유역 8번출구)", "address": "서울특별시 강북구 도봉로 355", "latitude": 37.63926315, "longitude": 127.0267258, "type": "LCD", "category": "자전거"},
  {"id": "293", "name": "삼양시장오거리", "address": "서울특별시 강북구 삼양로 234 다이소 삼양시장점", "latitude": 37.62415695, "longitude": 127.0186234, "type": "LCD", "category": "자전거"},
  {"id": "294", "name": "강북문화예술회관", "address": "서울특별시 강북구 삼각산로 85 강북문화예술회관", "latitude": 37.64032745, "longitude": 127.0133591, "type": "LCD", "category": "자전거"},
  {"id": "295", "name": "서울북부수도사업소", "address": "서울특별시 강북구 한천로 935 번동 386-17", "latitude": 37.63437653, "longitude": 127.0357513, "type": "LCD", "category": "자전거"},
  {"id": "296", "name": "번동주공5단지 관리사무소 앞", "address": "서울특별시 강북구 오현로25마길 27 번동 230", "latitude": 37.63371658, "longitude": 127.0355148, "type": "LCD", "category": "자전거"},
  {"id": "297", "name": "번동 금호어울림아파트102동앞", "address": "서울특별시 강북구 오현로31길 85-7 번동 656-2", "latitude": 37.63112259, "longitude": 127.0360336, "type": "LCD", "category": "자전거"},
  {"id": "298", "name": "강북중학교 앞", "address": "서울특별시 강북구 한천로150길 67 수유동 694-2", "latitude": 37.64473724, "longitude": 127.0265656, "type": "LCD", "category": "자전거"},
  {"id": "299", "name": "강북구청 뒷편", "address": "서울특별시 강북구 도봉로89길 13 수유동 192-59", "latitude": 37.63967133, "longitude": 127.0251999, "type": "LCD", "category": "자전거"},
  {"id": "300", "name": "강북구청 사거리 버스정류소 앞", "address": "서울특별시 강북구 한천로 1009 강북구청 사거리 버스정류소", "latitude": 37.63880539, "longitude": 127.0283585, "type": "LCD", "category": "자전거"},
  {"id": "301", "name": "송천동 주민센터", "address": "서울특별시 강북구 솔샘로 284 송천동 주민센터", "latitude": 37.61828613, "longitude": 127.0240479, "type": "LCD", "category": "자전거"},
  {"id": "302", "name": "우이초등학교 후문 옆", "address": "서울특별시 강북구 수유동 409-131", "latitude": 37.63858795, "longitude": 127.0159073, "type": "LCD", "category": "자전거"},
  {"id": "303", "name": "수유2동은행빌딩 앞", "address": "서울특별시 강북구 삼양로 439 SK telecom(수유직영점)", "latitude": 37.64308548, "longitude": 127.0161667, "type": "LCD", "category": "자전거"},
  {"id": "304", "name": "장미원시장 건너편", "address": "서울특별시 강북구 삼양로 474 수유동 317-3", "latitude": 37.64545059, "longitude": 127.0156174, "type": "LCD", "category": "자전거"},
  {"id": "305", "name": "수유중앙시장", "address": "서울특별시 강북구 노해로 50 수유동 140", "latitude": 37.63986206, "longitude": 127.022789, "type": "QR", "category": "자전거"},
  {"id": "306", "name": "미아동 복합청사", "address": "서울특별시 강북구 솔매로49길 14 미아동 195-1", "latitude": 37.62714005, "longitude": 127.0266953, "type": "LCD", "category": "자전거"},
  {"id": "307", "name": "강북종합시장 앞", "address": "서울특별시 강북구 수유동 140 수유동 채선당앞", "latitude": 37.64173889, "longitude": 127.0246277, "type": "LCD", "category": "자전거"},
  {"id": "308", "name": "미아역 1번 출구 뒤", "address": "서울특별시 강북구 미아동 194-1 미아역 1번 출구 뒤", "latitude": 37.62733459, "longitude": 127.0260544, "type": "LCD", "category": "자전거"},
  {"id": "309", "name": "삼각산동 주민센터", "address": "서울특별시 미아동 813-8 삼각산동 주민센터", "latitude": 37.61503601, "longitude": 127.0206986, "type": "LCD", "category": "자전거"},
  {"id": "310", "name": "미아동 한국전력공사", "address": "서울특별시 미아동 194-1 미아동 한국전력공사", "latitude": 37.63018036, "longitude": 127.02491, "type": "LCD", "category": "자전거"},
  {"id": "311", "name": "광산사거리", "address": "서울특별시 강북구 노해로 87 광산사거리", "latitude": 37.64355087, "longitude": 127.0223465, "type": "LCD", "category": "자전거"},
  {"id": "312", "name": "미아사거리 1번 출구", "address": "서울특별시 강북구 미아동 66-1 미아사거리 1번 출구", "latitude": 37.61395645, "longitude": 127.0302506, "type": "LCD", "category": "자전거"},
  {"id": "313", "name": "번3동 주민센터 교차로", "address": "서울특별시 강북구 번동 2-2 번3동 주민센터 교차로", "latitude": 37.62635422, "longitude": 127.0474472, "type": "LCD", "category": "자전거"},
  {"id": "314", "name": "번동 주공3, 4단지 교차로", "address": "서울특별시 강북구 번동 254 번동 주공3, 4단지 교차로", "latitude": 37.62991714, "longitude": 127.0409164, "type": "LCD", "category": "자전거"},
  {"id": "315", "name": "효성인텔리안 앞", "address": "서울특별시 수유동 230-7 효성인텔리안 앞", "latitude": 37.6362915, "longitude": 127.0233765, "type": "LCD", "category": "자전거"},
  {"id": "316", "name": "번동 두산위브 101동 옆", "address": "서울특별시 번동 386-17 번동 두산위브 101동 옆", "latitude": 37.63626099, "longitude": 127.0321732, "type": "LCD", "category": "자전거"},
  {"id": "317", "name": "북한산 우이역", "address": "서울특별시 강북구 삼양로 670 북한산 우이역", "latitude": 37.66366577, "longitude": 127.0124283, "type": "LCD", "category": "자전거"},
  {"id": "318", "name": "솔밭공원역", "address": "서울특별시 강북구 삼양로 595 솔밭공원역", "latitude": 37.65615845, "longitude": 127.0131378, "type": "LCD", "category": "자전거"},
  {"id": "319", "name": "4.19민주묘지역", "address": "서울특별시 강북구 삼양로 519 4.19민주묘지역", "latitude": 37.64967346, "longitude": 127.0134506, "type": "LCD", "category": "자전거"},
  {"id": "320", "name": "가오리역", "address": "서울특별시 강북구 삼양로 426 가오리역", "latitude": 37.64167023, "longitude": 127.0168839, "type": "LCD", "category": "자전거"},
  {"id": "321", "name": "삼양역", "address": "서울특별시 강북구 삼양로 263 삼양역", "latitude": 37.62652969, "longitude": 127.0180588, "type": "LCD", "category": "자전거"},
  {"id": "322", "name": "삼양사거리역", "address": "서울특별시 강북구 삼양로 197 삼양사거리역", "latitude": 37.62155151, "longitude": 127.0203705, "type": "LCD", "category": "자전거"},
  {"id": "323", "name": "수유1동 주민센터", "address": "서울특별시 강북구 삼양로 299 수유1동 주민센터", "latitude": 37.63018799, "longitude": 127.0177383, "type": "LCD", "category": "자전거"},
  {"id": "324", "name": "송천동우체국", "address": "서울특별시 강북구 도봉로 71 송천동우체국", "latitude": 37.61545944, "longitude": 127.0297012, "type": "LCD", "category": "자전거"},
  {"id": "325", "name": "꿈의숲 롯데캐슬", "address": "서울특별시 강북구 오현로 56 꿈의숲 롯데캐슬 111동 인근", "latitude": 37.61775208, "longitude": 127.0357056, "type": "LCD", "category": "자전거"},
  {"id": "326", "name": "북서울 꿈의숲 서문", "address": "서울특별시 강북구 월계로 173 북서울 꿈의숲 서문", "latitude": 37.62268829, "longitude": 127.0378113, "type": "LCD", "category": "자전거"},
  {"id": "327", "name": "삼각산아이원아파트(105동 옆)", "address": "서울특별시 강북구 삼양로19길 113 삼각산아이원아파트", "latitude": 37.61522293, "longitude": 127.0185089, "type": "QR", "category": "자전거"},
  {"id": "328", "name": "4.19탑 앞", "address": "서울특별시 강북구 수유동 567-55", "latitude": 37.64686203, "longitude": 127.008812, "type": "QR", "category": "자전거"},
  {"id": "329", "name": "강북구청사거리", "address": "서울특별시 강북구 도봉로 358 코스타타워", "latitude": 37.63920212, "longitude": 127.0272369, "type": "QR", "category": "자전거"},
  {"id": "330", "name": "서울북부고용노동지청", "address": "서울특별시 강북구 덕릉로 176 예수그리스도 후기성도교회", "latitude": 37.63520432, "longitude": 127.0339661, "type": "QR", "category": "자전거"},
  {"id": "331", "name": "번동사거리", "address": "서울특별시 강북구 번동 430-76", "latitude": 37.63539124, "longitude": 127.0345535, "type": "QR", "category": "자전거"},
  {"id": "332", "name": "신창교", "address": "서울특별시 강북구 번동 612-3", "latitude": 37.63238144, "longitude": 127.0393066, "type": "QR", "category": "자전거"},
  {"id": "333", "name": "강북문화정보도서관", "address": "서울특별시 강북구 번동 139-5", "latitude": 37.62552643, "longitude": 127.037323, "type": "QR", "category": "자전거"},
  {"id": "334", "name": "도봉세무서 앞", "address": "서울특별시 강북구 도봉로 117 도봉세무서", "latitude": 37.6198082, "longitude": 127.0285263, "type": "QR", "category": "자전거"},
  {"id": "335", "name": "4.19민주묘지역 1번출구", "address": "서울특별시 강북구 삼양로 522", "latitude": 37.64959717, "longitude": 127.0138474, "type": "QR", "category": "자전거"},
  {"id": "336", "name": "수유사거리", "address": "서울특별시 강북구 수유동 45-33", "latitude": 37.63561249, "longitude": 127.022995, "type": "QR", "category": "자전거"},
  {"id": "337", "name": "4.19민주묘지 입구사거리", "address": "서울특별시 강북구 삼양로 504 광리빌딩", "latitude": 37.64793396, "longitude": 127.0145721, "type": "QR", "category": "자전거"},
  {"id": "338", "name": "수유역2번출구", "address": "서울특별시 강북구 도봉로 342", "latitude": 37.63796997, "longitude": 127.0259018, "type": "QR", "category": "자전거"},
  {"id": "339", "name": "북서울 꿈의 숲 입구", "address": "서울특별시 강북구 오현로20길 46", "latitude": 37.62673187, "longitude": 127.0387726, "type": "QR", "category": "자전거"},
  {"id": "340", "name": "우이동 먹거리마을", "address": "서울특별시 강북구 우이동 207-14", "latitude": 37.66446304, "longitude": 127.0118408, "type": "QR", "category": "자전거"},
  {"id": "341", "name": "현대성우아파트 옆", "address": "서울특별시 강북구 삼양로24길 19 현대성우아파트", "latitude": 37.61666489, "longitude": 127.02211, "type": "QR", "category": "자전거"},
  {"id": "342", "name": "송중초등학교 옆", "address": "서울특별시 강북구 미아동 98-5", "latitude": 37.61669922, "longitude": 127.0304947, "type": "QR", "category": "자전거"},
  {"id": "343", "name": "삼양입구삼거리", "address": "서울특별시 강북구 솔샘로 326 대한예수교장로회 신성교회", "latitude": 37.61708832, "longitude": 127.0280991, "type": "QR", "category": "자전거"},
  {"id": "344", "name": "드래곤타워 앞", "address": "서울특별시 강북구 도봉로 348-1 구두수선대-15", "latitude": 37.63713455, "longitude": 127.0313797, "type": "QR", "category": "자전거"},
  {"id": "345", "name": "송천센트레빌", "address": "서울특별시 강북구 미아동 461-4", "latitude": 37.61220932, "longitude": 127.0249786, "type": "QR", "category": "자전거"},
  {"id": "346", "name": "번동3단지 버스정류장", "address": "서울특별시 강북구 서울 강북구 번동 255도", "latitude": 37.628685, "longitude": 127.0439072, "type": "QR", "category": "자전거"},
  {"id": "347", "name": "우이천 창번교", "address": "서울특별시 강북구 번동 655-8", "latitude": 37.63536072, "longitude": 127.037674, "type": "QR", "category": "자전거"},
  {"id": "348", "name": "삼양동주민센터 앞", "address": "강북구 솔매로69", "latitude": 37.62491226, "longitude": 127.0197907, "type": "QR", "category": "자전거"},
  {"id": "349", "name": "강북 청소년 문화정보도서관 앞", "address": "강북구 삼양로54길 68", "latitude": 37.62302017, "longitude": 127.0218658, "type": "QR", "category": "자전거"},
  {"id": "350", "name": "삼양동사거리", "address": "강북구 삼양로 163-1", "latitude": 37.61792755, "longitude": 127.0213623, "type": "QR", "category": "자전거"},
  {"id": "351", "name": "녹천역 1번출구 앞", "address": "서울특별시 도봉구 창동 426-6", "latitude": 37.64582062, "longitude": 127.0504227, "type": "LCD", "category": "자전거"},
  {"id": "352", "name": "도봉산광역환승센터앞", "address": "서울특별시 도봉구 도봉로 955 도봉동 637-1", "latitude": 37.68972015, "longitude": 127.0451965, "type": "LCD", "category": "자전거"},
  {"id": "353", "name": "도봉구청 정문앞", "address": "서울특별시 도봉구 마들로 656 방학동 720", "latitude": 37.66922379, "longitude": 127.0465164, "type": "LCD", "category": "자전거"},
  {"id": "354", "name": "방학동우체국 건너편", "address": "서울특별시 도봉구 도봉로 683 방학동 726-92", "latitude": 37.66566467, "longitude": 127.0426712, "type": "LCD", "category": "자전거"},
  {"id": "355", "name": "도봉구민회관", "address": "서울특별시 도봉구 도봉로 552 창동 723-11", "latitude": 37.65446091, "longitude": 127.0385132, "type": "LCD", "category": "자전거"},
  {"id": "356", "name": "도봉보건소사거리", "address": "서울특별시 도봉구 해등로 150 창동 723-10", "latitude": 37.65682983, "longitude": 127.0398483, "type": "LCD", "category": "자전거"},
  {"id": "357", "name": "쌍문역4번출구 주변", "address": "서울특별시 도봉구 도봉로 지하 486-1 쌍문동 83-5", "latitude": 37.65012741, "longitude": 127.035347, "type": "LCD", "category": "자전거"},
  {"id": "358", "name": "쌍문동 이안아파트 앞", "address": "서울특별시 도봉구 쌍문동 315-488", "latitude": 37.65165329, "longitude": 127.0284882, "type": "LCD", "category": "자전거"},
  {"id": "359", "name": "도봉문화정보도서관 삼거리", "address": "서울특별시 도봉구 덕릉로 315 도봉문화정보도서관 삼거리", "latitude": 37.64463043, "longitude": 127.0446091, "type": "LCD", "category": "자전거"},
  {"id": "360", "name": "서울특별시교육청도봉도서관", "address": "서울특별시 도봉구 삼양로556 서울특별시교육청도봉도서관", "latitude": 37.65317917, "longitude": 127.0127869, "type": "LCD", "category": "자전거"},
  {"id": "361", "name": "창동역 1번출구 건너편", "address": "서울특별시 도봉구 마들로11길 20 하나로마트 창동점", "latitude": 37.65420151, "longitude": 127.0507278, "type": "LCD", "category": "자전거"},
  {"id": "362", "name": "신도봉사거리 버스정류장", "address": "서울특별시 도봉구 도봉로 771 신도봉사거리 버스정류장", "latitude": 37.67328262, "longitude": 127.0439911, "type": "LCD", "category": "자전거"},
  {"id": "363", "name": "도봉구청 옆(중랑천변)", "address": "서울특별시 도봉구 마들로 656 도봉구청 옆(중랑천변)", "latitude": 37.66867065, "longitude": 127.0479813, "type": "LCD", "category": "자전거"},
  {"id": "364", "name": "창동역 2번출구", "address": "서울특별시 창동 74-2 창동역 2번출구", "latitude": 37.65301514, "longitude": 127.0469971, "type": "LCD", "category": "자전거"},
  {"id": "365", "name": "창동청소년수련관", "address": "서울특별시 도봉구 노해로69길 132 창동청소년수련관", "latitude": 37.65779877, "longitude": 127.0500488, "type": "LCD", "category": "자전거"},
  {"id": "366", "name": "방학동학마을도서관", "address": "서울특별시 도봉구 시루봉로 128 방학동학마을도서관", "latitude": 37.66207886, "longitude": 127.0277176, "type": "LCD", "category": "자전거"},
  {"id": "367", "name": "창1동주민센터", "address": "서울특별시 도봉구 해등로 46 창1동주민센터", "latitude": 37.6475029, "longitude": 127.0433121, "type": "LCD", "category": "자전거"},
  {"id": "368", "name": "삼익세라믹아파트교차로", "address": "서울특별시 도봉구 해등로 189 삼익세라믹아파트", "latitude": 37.65858841, "longitude": 127.0352097, "type": "LCD", "category": "자전거"},
  {"id": "369", "name": "서울도봉초등학교인근", "address": "서울특별시 도봉구 도봉로173길 96 서울도봉초등학교인근", "latitude": 37.67867661, "longitude": 127.0407639, "type": "LCD", "category": "자전거"},
  {"id": "370", "name": "서울북부지방법원", "address": "서울특별시 도봉구 마들로 749 서울북부지방법원", "latitude": 37.67771912, "longitude": 127.046814, "type": "LCD", "category": "자전거"},
  {"id": "371", "name": "도봉한신아파트 버스정류장", "address": "서울특별시 도봉구 도봉로 891 파리바게트앞", "latitude": 37.68400955, "longitude": 127.0457916, "type": "LCD", "category": "자전거"},
  {"id": "372", "name": "도봉산역 교차로 앞", "address": "서울특별시 도봉구 도봉산길 10 도봉산역 교차로 앞", "latitude": 37.68759155, "longitude": 127.0455017, "type": "LCD", "category": "자전거"},
  {"id": "373", "name": "도봉고등학교 맞은편", "address": "서울특별시 도봉구 도봉동 282-16", "latitude": 37.6876297, "longitude": 127.0422134, "type": "LCD", "category": "자전거"},
  {"id": "374", "name": "방학역사거리", "address": "서울특별시 도봉구 도봉로 707 우리은행 앞", "latitude": 37.66759872, "longitude": 127.0429993, "type": "LCD", "category": "자전거"},
  {"id": "375", "name": "방학사거리 (봄마당 앞)", "address": "서울특별시 도봉구 방학로 102 방학사거리 (봄마당 앞)", "latitude": 37.66297913, "longitude": 127.0419388, "type": "LCD", "category": "자전거"},
  {"id": "376", "name": "쌍문현대1차아파트 108동 앞", "address": "서울특별시 도봉구 해등로 218 쌍문현대1차아파트 108동 앞", "latitude": 37.65814972, "longitude": 127.0326691, "type": "LCD", "category": "자전거"},
  {"id": "377", "name": "도봉역 1,2번 출구사이 건너편", "address": "서울특별시 도봉구 도봉로170길 2 도봉역 1,2번 출구사이 건너편", "latitude": 37.67911911, "longitude": 127.0449829, "type": "LCD", "category": "자전거"},
  {"id": "378", "name": "버스정류장 앞", "address": "서울특별시 도봉구 도봉로 528 버스정류장 앞", "latitude": 37.65224075, "longitude": 127.0370636, "type": "LCD", "category": "자전거"},
  {"id": "379", "name": "신창시장", "address": "서울특별시 도봉구 덕릉로 249 하나은행 (창동점)", "latitude": 37.63970184, "longitude": 127.0388336, "type": "LCD", "category": "자전거"},
  {"id": "380", "name": "창동주공17단지 상가앞", "address": "서울특별시 도봉구 덕릉로 404 창동주공17단지 상가앞", "latitude": 37.6463089, "longitude": 127.052742, "type": "LCD", "category": "자전거"},
  {"id": "381", "name": "제일강산수산입구", "address": "서울특별시 도봉구 도봉로 444 제일강산수산입구", "latitude": 37.64519882, "longitude": 127.0329819, "type": "LCD", "category": "자전거"},
  {"id": "382", "name": "북한산 코오롱 하늘채", "address": "서울특별시 도봉구 우이천로 367 북한산 코오롱 하늘채", "latitude": 37.64889145, "longitude": 127.0230179, "type": "LCD", "category": "자전거"},
  {"id": "383", "name": "창동19단지아파트 관리사무소앞", "address": "서울특별시 도봉구 노해로70길 37 주공19단지아파트", "latitude": 37.65039062, "longitude": 127.0521927, "type": "QR", "category": "자전거"},
  {"id": "384", "name": "도봉소방서 옆", "address": "서울특별시 도봉구 도봉로 678 홈플러스데스코㈜방학점", "latitude": 37.66480255, "longitude": 127.0430298, "type": "QR", "category": "자전거"},
  {"id": "385", "name": "ESA아파트 상가 앞", "address": "서울특별시 도봉구 도봉로150길 43 ESA 아파트", "latitude": 37.66627121, "longitude": 127.04599, "type": "QR", "category": "자전거"},
  {"id": "386", "name": "창포원 남쪽 입구", "address": "서울특별시 도봉구 마들로 916 방문자센터", "latitude": 37.68826675, "longitude": 127.0488968, "type": "QR", "category": "자전거"},
  {"id": "387", "name": "창원초등학교 교차로", "address": "서울특별시 도봉구 해등로12길 44 주공2단지아파트", "latitude": 37.6521225, "longitude": 127.0417023, "type": "QR", "category": "자전거"},
  {"id": "388", "name": "창동 주공 4단지 입구 옆", "address": "서울특별시 도봉구 덕릉로 357 주공4단지아파트", "latitude": 37.64548111, "longitude": 127.0485764, "type": "QR", "category": "자전거"},
  {"id": "389", "name": "창동시장입구 사거리", "address": "서울특별시 도봉구 도봉로 461 우림빌딩", "latitude": 37.64689636, "longitude": 127.033432, "type": "QR", "category": "자전거"},
  {"id": "390", "name": "서울북부광역등기국", "address": "서울특별시 도봉구 노해로 327", "latitude": 37.65148544, "longitude": 127.0443192, "type": "QR", "category": "자전거"},
  {"id": "391", "name": "솔밭공원역 1번출구 앞", "address": "서울특별시 도봉구 삼양로 590", "latitude": 37.65568542, "longitude": 127.013382, "type": "QR", "category": "자전거"},
  {"id": "392", "name": "솔밭공원역 1번출구 주변", "address": "서울특별시 도봉구 삼양로 610 산수디앤씨", "latitude": 37.65727997, "longitude": 127.0137558, "type": "QR", "category": "자전거"},
  {"id": "393", "name": "서울북부지방법원 앞", "address": "서울특별시 도봉구 마들로 749 서울북부지방법원", "latitude": 37.67721939, "longitude": 127.0486374, "type": "QR", "category": "자전거"},
  {"id": "394", "name": "방학중학교 앞", "address": "서울특별시 도봉구 시루봉로 188 방학중학교", "latitude": 37.66562271, "longitude": 127.0310898, "type": "QR", "category": "자전거"},
  {"id": "395", "name": "북한산 한신휴플러스APT앞", "address": "서울특별시 도봉구 도봉로136가길 73 북한산한신휴플러스아파트", "latitude": 37.65533829, "longitude": 127.0424194, "type": "QR", "category": "자전거"},
  {"id": "396", "name": "쌍문역 1번출구 주변", "address": "서울특별시 도봉구 도봉로 496", "latitude": 37.64966965, "longitude": 127.035614, "type": "QR", "category": "자전거"},
  {"id": "397", "name": "방학초등학교 앞", "address": "서울특별시 도봉구 방학동 726-127", "latitude": 37.66250992, "longitude": 127.0332794, "type": "QR", "category": "자전거"},
  {"id": "398", "name": "신동아타워 버스정류소", "address": "서울특별시 도봉구 방학로 217-1", "latitude": 37.66208267, "longitude": 127.0287476, "type": "QR", "category": "자전거"},
  {"id": "399", "name": "도봉한신아파트 주변", "address": "서울특별시 도봉구 도봉동 646-1", "latitude": 37.68473816, "longitude": 127.0500412, "type": "QR", "category": "자전거"},
  {"id": "400", "name": "성원APT버스정류소", "address": "서울특별시 도봉구 해등로 242-18 현대아파트", "latitude": 37.65796661, "longitude": 127.0300903, "type": "QR", "category": "자전거"},
  {"id": "401", "name": "시립도봉노인복지관 버스정류소", "address": "서울특별시 도봉구 쌍문동 45-13", "latitude": 37.65805054, "longitude": 127.035759, "type": "QR", "category": "자전거"},
  {"id": "402", "name": "정의여중고 버스정류소", "address": "서울특별시 도봉구 쌍문동 83-2", "latitude": 37.65134811, "longitude": 127.034729, "type": "QR", "category": "자전거"},
  {"id": "403", "name": "신원리베르텔 앞", "address": "서울특별시 도봉구 창동 339", "latitude": 37.65128708, "longitude": 127.0455475, "type": "QR", "category": "자전거"},
  {"id": "404", "name": "창동한신아파트 버스정류소", "address": "서울특별시 도봉구 도봉로110길 25 맞은편", "latitude": 37.64601898, "longitude": 127.0352707, "type": "QR", "category": "자전거"},
  {"id": "405", "name": "다락원체육공원 전망대 입구", "address": "서울특별시 도봉구 도봉구 도봉동 1-22", "latitude": 37.69101334, "longitude": 127.0491638, "type": "QR", "category": "자전거"},
  {"id": "406", "name": "평화도봉공원 주변", "address": "서울특별시 도봉구 방학동 710", "latitude": 37.66252136, "longitude": 127.0427094, "type": "QR", "category": "자전거"},
  {"id": "407", "name": "신창아파트 입구 앞", "address": "서울특별시 도봉구 도봉구 덕릉로62길 14", "latitude": 37.64051056, "longitude": 127.0408249, "type": "QR", "category": "자전거"},
  {"id": "408", "name": "창동역 1번출구 앞", "address": "서울특별시 도봉구 도봉구 창동 1-12", "latitude": 37.65373611, "longitude": 127.0492935, "type": "QR", "category": "자전거"},
  {"id": "409", "name": "방아골종합사회복지관", "address": "서울특별시 도봉구 방학동 606-5", "latitude": 37.66927338, "longitude": 127.0324326, "type": "QR", "category": "자전거"},
  {"id": "410", "name": "도봉구육아종합지원센터(창동)", "address": "서울특별시 도봉구 도봉구 우이천로4길 24-5", "latitude": 37.63342667, "longitude": 127.0411606, "type": "QR", "category": "자전거"},
  {"id": "411", "name": "도봉통합복지센터 뒤 중랑천 변", "address": "서울특별시 도봉구 창동", "latitude": 37.65999603, "longitude": 127.0512772, "type": "QR", "category": "자전거"},
  {"id": "412", "name": "도봉제1교", "address": "서울특별시 도봉구 도봉동 86-1", "latitude": 37.67984772, "longitude": 127.0503845, "type": "QR", "category": "자전거"},
  {"id": "413", "name": "원당공원 앞", "address": "서울특별시 도봉구 도봉구 쌍문동 250-6", "latitude": 37.65854645, "longitude": 127.0276794, "type": "QR", "category": "자전거"},
  {"id": "414", "name": "창동주공19단지앞", "address": "서울특별시 도봉구 도봉시 노해로 70길 19 1905동 앞 ( 도봉경찰서 건너편) 버스정류장 쯤에 희망합니다 (분명 설치예정팻말이 붙어있었는데 아직도 시행안됨)", "latitude": 37.65250778, "longitude": 127.0522766, "type": "QR", "category": "자전거"},
  {"id": "415", "name": "도봉아이나라도서관 앞", "address": "서울특별시 도봉구 창동 808-3", "latitude": 37.65898895, "longitude": 127.049736, "type": "QR", "category": "자전거"},
  {"id": "416", "name": "도봉동실내스포츠센터", "address": "서울특별시 도봉구 도봉구 마들로 805 (도봉동실내스포츠센터 앞)", "latitude": 37.68125534, "longitude": 127.0504761, "type": "QR", "category": "자전거"},
  {"id": "417", "name": "도봉로 534", "address": "서울특별시 도봉구 도봉로 534", "latitude": 37.6529541, "longitude": 127.0375443, "type": "QR", "category": "자전거"},
  {"id": "418", "name": "우이교 교차로", "address": "서울특별시 도봉구 도봉로 420", "latitude": 37.6432457, "longitude": 127.031601, "type": "QR", "category": "자전거"},
  {"id": "419", "name": "김근태도서관", "address": "서울특별시 도봉구 도봉동 282-275", "latitude": 37.68750763, "longitude": 127.0426331, "type": "QR", "category": "자전거"},
  {"id": "420", "name": "동부센트레빌 앞", "address": "서울특별시 도봉구 방학로 131-1 구두수선대", "latitude": 37.66299057, "longitude": 127.0386429, "type": "QR", "category": "자전거"},
  {"id": "421", "name": "녹천교 앞 사거리", "address": "창동36(녹천교앞사거리 17단지쪽)", "latitude": 37.64564514, "longitude": 127.054596, "type": "QR", "category": "자전거"},
  {"id": "422", "name": "방학역2번출구", "address": "방학동719-2", "latitude": 37.66922379, "longitude": 127.0444183, "type": "QR", "category": "자전거"},
  {"id": "423", "name": "도봉경찰서 교차로", "address": "창동36", "latitude": 37.65265656, "longitude": 127.053093, "type": "QR", "category": "자전거"},
  {"id": "424", "name": "도봉여성센터", "address": "방학로12길 28(후문 마당)", "latitude": 37.66334915, "longitude": 127.0304565, "type": "QR", "category": "자전거"},
  {"id": "425", "name": "방학브라운스톤아파트", "address": "도봉로146길 36", "latitude": 37.66289139, "longitude": 127.0454025, "type": "QR", "category": "자전거"},
  {"id": "426", "name": "석계역 문화광장 내 자전거 보관소", "address": "서울특별시 노원구 화랑로 331", "latitude": 37.61518097, "longitude": 127.0646439, "type": "QR", "category": "자전거"},
  {"id": "427", "name": "광운대역 앞", "address": "서울특별시 노원구 석계로 98-2 노원구 월계동 412-1", "latitude": 37.62266159, "longitude": 127.0618973, "type": "LCD", "category": "자전거"},
  {"id": "428", "name": "헬스케어", "address": "서울특별시 노원구 월계로 378 노원구 월계동 321-4", "latitude": 37.63162231, "longitude": 127.061615, "type": "LCD", "category": "자전거"},
  {"id": "429", "name": "태릉입구역 3번출구", "address": "서울특별시 노원구 동일로 지하 992-1 노원구 공릉동 616-4", "latitude": 37.61917114, "longitude": 127.0749283, "type": "LCD", "category": "자전거"},
  {"id": "430", "name": "공릉역 1번 출구 앞", "address": "서울특별시 노원구 동일로 지하 1074 노원구 공릉동 385-4", "latitude": 37.62661362, "longitude": 127.0727539, "type": "LCD", "category": "자전거"},
  {"id": "431", "name": "화랑대역 2번출구 앞", "address": "서울특별시 노원구 화랑로 지하 510 노원구 공릉동 280-12", "latitude": 37.62036896, "longitude": 127.0836411, "type": "LCD", "category": "자전거"},
  {"id": "432", "name": "과기대 입구(우)", "address": "서울특별시 노원구 공릉로 232 노원구 공릉동 436-4", "latitude": 37.62994003, "longitude": 127.0765533, "type": "LCD", "category": "자전거"},
  {"id": "433", "name": "하계2동 공항버스정류장 옆", "address": "서울특별시 노원구 동일로 지하 1196 노원구 하계동 273-5", "latitude": 37.63510895, "longitude": 127.0683289, "type": "LCD", "category": "자전거"},
  {"id": "434", "name": "하계동 중평어린이공원 앞", "address": "서울특별시 노원구 섬밭로 241 하계동 271-1", "latitude": 37.63714981, "longitude": 127.0632706, "type": "LCD", "category": "자전거"},
  {"id": "435", "name": "중계동 하나프라자빌딩 앞(중1-1)", "address": "서울특별시 노원구 한글비석로 235 노원구 중계동 391", "latitude": 37.64902115, "longitude": 127.0764084, "type": "LCD", "category": "자전거"},
  {"id": "436", "name": "중계동 노원구민체육센터 옆(중1-2)", "address": "서울특별시 노원구 노원로22길 1 노원구 중계1동 360-18", "latitude": 37.64820862, "longitude": 127.070221, "type": "LCD", "category": "자전거"},
  {"id": "437", "name": "상계역 3번출구", "address": "서울특별시 노원구 상계로 182 노원구 상계동 173-19", "latitude": 37.65999985, "longitude": 127.0729675, "type": "LCD", "category": "자전거"},
  {"id": "438", "name": "수락산역 4번출구", "address": "서울특별시 노원구 동일로 지하 1662 노원구 상계동 1263", "latitude": 37.67694092, "longitude": 127.0550995, "type": "QR", "category": "자전거"},
  {"id": "439", "name": "노일초등학교 앞", "address": "서울특별시 노원구 동일로 1652 노원구 상계동 1118-9", "latitude": 37.67361832, "longitude": 127.0552521, "type": "LCD", "category": "자전거"},
  {"id": "440", "name": "수연빌딩 앞", "address": "서울특별시 노원구 동일로 지하 1662 노원구 상계동 1132-9", "latitude": 37.67625046, "longitude": 127.0555039, "type": "QR", "category": "자전거"},
  {"id": "441", "name": "당고개공원 대여소", "address": "서울특별시 노원구 상계동 1355-2", "latitude": 37.66846085, "longitude": 127.0771484, "type": "LCD", "category": "자전거"},
  {"id": "442", "name": "상계3.4동 주민센터 대여소", "address": "서울특별시 노원구 덕릉로131길 8 노원구 상계동 37-7", "latitude": 37.67271042, "longitude": 127.0831604, "type": "LCD", "category": "자전거"},
  {"id": "443", "name": "상계주공2단지 버스정류장 옆", "address": "서울특별시 노원구 동일로 1351 노원구 상계동 747", "latitude": 37.64921188, "longitude": 127.0617676, "type": "LCD", "category": "자전거"},
  {"id": "444", "name": "KT 전화국 버스정류장 옆", "address": "서울특별시 노원구 노해로 489 노원구 상계동 719-1", "latitude": 37.65470123, "longitude": 127.0634003, "type": "LCD", "category": "자전거"},
  {"id": "445", "name": "희성오피앙", "address": "서울특별시 노원구 동일로 1701 노원구 상계동 1263", "latitude": 37.68031311, "longitude": 127.055069, "type": "LCD", "category": "자전거"},
  {"id": "446", "name": "한내근린공원 북측", "address": "서울특별시 노원구 마들로 86 한내근린공원 북측", "latitude": 37.62386322, "longitude": 127.0684891, "type": "QR", "category": "자전거"},
  {"id": "447", "name": "한내근린공원 남측", "address": "서울특별시 노원구 마들로 86 한내근린공원 남측", "latitude": 37.62155533, "longitude": 127.0695114, "type": "LCD", "category": "자전거"},
  {"id": "448", "name": "서울여대 남문", "address": "서울특별시 노원구 화랑로 621 서울여자대학교 서울여대 후문", "latitude": 37.62531662, "longitude": 127.0881348, "type": "LCD", "category": "자전거"},
  {"id": "449", "name": "태릉입구역 8번출구", "address": "서울특별시 노원구 공릉동 687-6 태릉입구역 8번출구", "latitude": 37.61736679, "longitude": 127.0752106, "type": "LCD", "category": "자전거"},
  {"id": "450", "name": "삼육대 입구", "address": "서울특별시 노원구 공릉동 26-43 삼육대 입구", "latitude": 37.63848877, "longitude": 127.1079025, "type": "LCD", "category": "자전거"},
  {"id": "451", "name": "중계근린공원내", "address": "서울특별시 노원구 중계동 506-3 중계근린공원내", "latitude": 37.63957977, "longitude": 127.0651016, "type": "QR", "category": "자전거"},
  {"id": "452", "name": "상계동 우방유쉘아파트 앞", "address": "서울특별시 노원구 상계동 1118-9 맥도날드 상계점 앞", "latitude": 37.67237473, "longitude": 127.0559921, "type": "LCD", "category": "자전거"},
  {"id": "453", "name": "파르코 앞", "address": "서울특별시 노원구 상계동 1263 파르코 앞", "latitude": 37.68000031, "longitude": 127.0555801, "type": "LCD", "category": "자전거"},
  {"id": "454", "name": "노원역1번출구", "address": "서울특별시 노원구 상계동 335-4 노원역1번출구", "latitude": 37.65620041, "longitude": 127.0636215, "type": "LCD", "category": "자전거"},
  {"id": "455", "name": "당고개입구 오거리", "address": "서울특별시 노원구 상계동 172-2 보훈회관 대여소", "latitude": 37.66379166, "longitude": 127.0754471, "type": "LCD", "category": "자전거"},
  {"id": "456", "name": "공릉1단지아파트", "address": "서울특별시 동일로 1127 공릉1단지아파트", "latitude": 37.63111115, "longitude": 127.0701599, "type": "LCD", "category": "자전거"},
  {"id": "457", "name": "중앙하이츠 아파트 입구", "address": "서울특별시 노원구 노원로 434 상계2차중앙하이츠아파트", "latitude": 37.65501785, "longitude": 127.0675049, "type": "LCD", "category": "자전거"},
  {"id": "458", "name": "노원구청", "address": "서울특별시 노원구 노해로 437 노원구청", "latitude": 37.65404892, "longitude": 127.0573273, "type": "LCD", "category": "자전거"},
  {"id": "459", "name": "중계동 을지중학교", "address": "서울특별시 노원구 중계동 370 중계동 을지중학교", "latitude": 37.65032959, "longitude": 127.0716019, "type": "LCD", "category": "자전거"},
  {"id": "460", "name": "서울시립과학관", "address": "서울특별시 노원구 하계동 266 서울시립과학관", "latitude": 37.64207077, "longitude": 127.076622, "type": "LCD", "category": "자전거"},
  {"id": "461", "name": "당현천근린공원", "address": "서울특별시 노원구 동일로 1342 당현천근린공원", "latitude": 37.64963913, "longitude": 127.0656052, "type": "LCD", "category": "자전거"},
  {"id": "462", "name": "노원역7번출구", "address": "서울특별시 노원구 노해로 459 메가빌딩", "latitude": 37.65421677, "longitude": 127.0592117, "type": "LCD", "category": "자전거"},
  {"id": "463", "name": "동해문화예술관앞", "address": "서울특별시 노원구 화랑로 429 동해문화예술관앞", "latitude": 37.61938095, "longitude": 127.0578537, "type": "LCD", "category": "자전거"},
  {"id": "464", "name": "노해근린공원내", "address": "서울특별시 노원구 노원로22길 1 노해근린공원내", "latitude": 37.64936066, "longitude": 127.0704422, "type": "LCD", "category": "자전거"},
  {"id": "465", "name": "양지근린공원앞", "address": "서울특별시 노원구 한글비석로 227 양지근린공원앞", "latitude": 37.64699554, "longitude": 127.0764008, "type": "LCD", "category": "자전거"},
  {"id": "466", "name": "노원소방서인근", "address": "서울특별시 노원구 노원로26길 111 노원소방서인근", "latitude": 37.65578079, "longitude": 127.0717773, "type": "LCD", "category": "자전거"},
  {"id": "467", "name": "중계중학교", "address": "서울특별시 노원구 덕릉로76길 23 중계중학교", "latitude": 37.65449905, "longitude": 127.0743866, "type": "LCD", "category": "자전거"},
  {"id": "468", "name": "중계역 6번출구", "address": "서울특별시 노원구 동일로 지하 1308-1 중계역 6번출구", "latitude": 37.64556503, "longitude": 127.0633469, "type": "LCD", "category": "자전거"},
  {"id": "469", "name": "중계역 3번출구", "address": "서울특별시 노원구 동일로 지하 1308-1 중계역 3번출구", "latitude": 37.64352798, "longitude": 127.0652237, "type": "LCD", "category": "자전거"},
  {"id": "470", "name": "노원경찰서교차로", "address": "서울특별시 노원구 노원로 283 노원경찰서교차로", "latitude": 37.64340973, "longitude": 127.0718384, "type": "LCD", "category": "자전거"},
  {"id": "471", "name": "인덕대학교", "address": "서울특별시 노원구 초안산로 12 인덕대학교", "latitude": 37.62934875, "longitude": 127.0548248, "type": "LCD", "category": "자전거"},
  {"id": "472", "name": "상계동수락리버시티", "address": "서울특별시 노원구 누원로 18 상계동수락리버시티", "latitude": 37.68859863, "longitude": 127.0534058, "type": "LCD", "category": "자전거"},
  {"id": "473", "name": "서울북부고용센터앞", "address": "서울특별시 노원구 노해로 450 서울북부고용센터앞", "latitude": 37.65354919, "longitude": 127.0580826, "type": "LCD", "category": "자전거"},
  {"id": "474", "name": "월계문화체육센터", "address": "서울특별시 노원구 월계로 280 월계문화체육센터", "latitude": 37.62694168, "longitude": 127.05513, "type": "LCD", "category": "자전거"},
  {"id": "475", "name": "육군사관학교 앞", "address": "서울특별시 노원구 화랑로 570 육군사관학교 앞", "latitude": 37.62316513, "longitude": 127.0904999, "type": "LCD", "category": "자전거"},
  {"id": "476", "name": "성서대학교 밀알관", "address": "서울특별시 노원구 동일로214길 32 성서대학교 밀알관", "latitude": 37.6484375, "longitude": 127.0644455, "type": "LCD", "category": "자전거"},
  {"id": "477", "name": "삼육대 도서관", "address": "서울특별시 노원구 화랑로 815 삼육대 도서관", "latitude": 37.6428299, "longitude": 127.1066666, "type": "LCD", "category": "자전거"},
  {"id": "478", "name": "삼육대 제3과학관", "address": "서울특별시 노원구 화랑로 653 삼육대 후문 삼거리", "latitude": 37.64265442, "longitude": 127.1083832, "type": "LCD", "category": "자전거"},
  {"id": "479", "name": "현대6차 아파트", "address": "서울특별시 노원구 중계로8길 20 현대6차 아파트", "latitude": 37.64580154, "longitude": 127.0822601, "type": "LCD", "category": "자전거"},
  {"id": "480", "name": "중계종합사회복지관 교차로", "address": "서울특별시 노원구 덕릉로 662 중계3단지주공영구임대아파트", "latitude": 37.65745544, "longitude": 127.0755463, "type": "QR", "category": "자전거"},
  {"id": "481", "name": "노원문화예술회관", "address": "서울특별시 노원구 중계로 181 노원문화예술회관", "latitude": 37.65045929, "longitude": 127.0808868, "type": "LCD", "category": "자전거"},
  {"id": "482", "name": "태릉입구역 5번출구", "address": "서울특별시 노원구 동일로 986 태릉입구역 5번출구와 6번출구 사이", "latitude": 37.61832047, "longitude": 127.0756302, "type": "LCD", "category": "자전거"},
  {"id": "483", "name": "불암고등학교 앞 횡단보도", "address": "서울특별시 노원구 중계로 155 불암고등학교 앞 횡단보도", "latitude": 37.64818954, "longitude": 127.0804825, "type": "LCD", "category": "자전거"},
  {"id": "484", "name": "상계주공10단지 종합상가 앞", "address": "서울특별시 노원구 동일로227길 85 온수골사거리(스타벅스앞)", "latitude": 37.66114044, "longitude": 127.0580521, "type": "LCD", "category": "자전거"},
  {"id": "485", "name": "마들역 7번출구", "address": "서울특별시 노원구 동일로 지하 1530-1 마들역 7번출구", "latitude": 37.66566086, "longitude": 127.0572968, "type": "QR", "category": "자전거"},
  {"id": "486", "name": "마들역 3번출구", "address": "서울특별시 노원구 동일로 지하 1530-1 마들역 3번출구", "latitude": 37.66524887, "longitude": 127.0578919, "type": "QR", "category": "자전거"},
  {"id": "487", "name": "도봉운전면허시험장 버스정류장 옆", "address": "서울특별시 노원구 동일로 1449 도봉운전면허시험장", "latitude": 37.6577301, "longitude": 127.0593109, "type": "LCD", "category": "자전거"},
  {"id": "488", "name": "노원정보도서관", "address": "서울특별시 노원구 노원로34길 43 노원정보도서관", "latitude": 37.66070938, "longitude": 127.0653305, "type": "LCD", "category": "자전거"},
  {"id": "489", "name": "온곡초교 교차로", "address": "서울특별시 노원구 한글비석로 471 온곡초교 교차로", "latitude": 37.66418839, "longitude": 127.0660095, "type": "LCD", "category": "자전거"},
  {"id": "490", "name": "원자력 병원", "address": "서울특별시 노원구 노원로 75 원자력병원 국가방사선 비상진료센터", "latitude": 37.62818909, "longitude": 127.0821075, "type": "LCD", "category": "자전거"},
  {"id": "491", "name": "수락리버시티4단지", "address": "서울특별시 노원구 누원로 18 수락리버시티4단지", "latitude": 37.68645096, "longitude": 127.0528336, "type": "QR", "category": "자전거"},
  {"id": "492", "name": "상계주공2단지 219동", "address": "서울특별시 노원구 동일로215길 81 새상계교회", "latitude": 37.65024948, "longitude": 127.0571518, "type": "QR", "category": "자전거"},
  {"id": 493, "name": "공릉동풍림아파트 101동", "address": "서울특별시 노원구 섬밭로 139 공릉풍림아파트", "latitude": 37.62981415, "longitude": 127.0665054, "type": "QR", "category": "자전거"},
  {"id": 494, "name": "공릉풍림아파트 108동", "address": "서울특별시 노원구 섬밭로 139 공릉풍림아파트", "latitude": 37.62862015, "longitude": 127.0669098, "type": "QR", "category": "자전거"},
  {"id": 495, "name": "월계초안아파트 1단지", "address": "서울특별시 노원구 덕릉로60타길 24", "latitude": 37.63372803, "longitude": 127.0443649, "type": "QR", "category": "자전거"},
  {"id": 496, "name": "중계3차청구아파트", "address": "서울특별시 노원구 중계로 233 청구3차아파트", "latitude": 37.65050507, "longitude": 127.0739822, "type": "QR", "category": "자전거"},
  {"id": 497, "name": "월계중학교", "address": "서울특별시 노원구 초안산로 29 신계초등학교", "latitude": 37.63074875, "longitude": 127.0531082, "type": "QR", "category": "자전거"},
  {"id": 498, "name": "광운대학교 중앙도서관", "address": "서울특별시 노원구 광운로 20 광운대학교", "latitude": 37.62000275, "longitude": 127.0585632, "type": "QR", "category": "자전거"},
  {"id": 499, "name": "석계역 3번 출구", "address": "서울특별시 노원구 화랑로 351-2 구두수선대196", "latitude": 37.61545944, "longitude": 127.0674515, "type": "QR", "category": "자전거"},
  {"id": 500, "name": "도깨비시장", "address": "서울특별시 노원구 동일로 1028 한의학명가", "latitude": 37.62186432, "longitude": 127.0740509, "type": "QR", "category": "자전거"},
  {"id": 501, "name": "상계역중앙시장", "address": "서울특별시 노원구 한글비석로 389-2 가로판매대", "latitude": 37.6588707, "longitude": 127.0719147, "type": "QR", "category": "자전거"},
  {"id": 502, "name": "대진고등학교", "address": "서울특별시 노원구 한글비석로 97", "latitude": 37.63815689, "longitude": 127.0732651, "type": "QR", "category": "자전거"},
  {"id": 503, "name": "상계8동 주민센터", "address": "서울특별시 노원구 동일로227길 85 상계주공11단지아파트", "latitude": 37.66712952, "longitude": 127.0517654, "type": "QR", "category": "자전거"},
  {"id": 504, "name": "서울과학기술대학교(미래관)", "address": "서울특별시 노원구 노원로 75 한국원자력의학원", "latitude": 37.62950897, "longitude": 127.0810394, "type": "QR", "category": "자전거"},
  {"id": 505, "name": "서울과학기술대학교(어학교육원)", "address": "서울특별시 노원구 공릉로58길 130 서울과학기술대학교 생활관", "latitude": 37.63489914, "longitude": 127.0776749, "type": "QR", "category": "자전거"},
  {"id": 506, "name": "신창중학교 후문 맞은편 버스정류장", "address": "서울특별시 노원구 월계동 855-26", "latitude": 37.62807083, "longitude": 127.0469208, "type": "QR", "category": "자전거"},
  {"id": 507, "name": "등나무 근린공원(시립북서울미술관 앞)", "address": "서울특별시 노원구 동일로 1231-2 가로판매대173", "latitude": 37.64020538, "longitude": 127.0676193, "type": "QR", "category": "자전거"},
  {"id": 508, "name": "상계중학교(당현2교사거리)", "address": "서울특별시 노원구 상계동 225-5", "latitude": 37.65103531, "longitude": 127.0687103, "type": "QR", "category": "자전거"},
  {"id": 509, "name": "중계역 2번출구", "address": "노원구 중계동 514-6", "latitude": 37.64587021, "longitude": 127.0656204, "type": "QR", "category": "자전거"},
  {"id": 510, "name": "상계주공 14단지 상가 앞", "address": "서울특별시 노원구 (도로명) 서울 노원구 동일로 228길 23", "latitude": 37.66963577, "longitude": 127.0597076, "type": "QR", "category": "자전거"},
  {"id": 511, "name": "당고개입구오거리 당현천변", "address": "서울특별시 노원구 서울 노원구 중계동 140-46", "latitude": 37.66260529, "longitude": 127.0755768, "type": "QR", "category": "자전거"},
  {"id": 512, "name": "중계2차 한화꿈에그린 101동 인근", "address": "서울특별시 노원구 서울 노원구 덕릉로83길 5", "latitude": 37.65955734, "longitude": 127.0752564, "type": "QR", "category": "자전거"},
  {"id": 513, "name": "노원 을지대학교 병원", "address": "서울특별시 노원구 서울 노원구 한글비석로 68", "latitude": 37.63666916, "longitude": 127.0696945, "type": "QR", "category": "자전거"},
  {"id": 514, "name": "하계 어린이 공원", "address": "노원구 하계2동 273-3", "latitude": 37.63341522, "longitude": 127.0691605, "type": "QR", "category": "자전거"},
  {"id": 515, "name": "월계프라자", "address": "서울특별시 노원구 초안산로5길 22 대우아파트", "latitude": 37.63284302, "longitude": 127.0521317, "type": "QR", "category": "자전거"},
  {"id": 516, "name": "월계 센트럴 아이파크", "address": "서울특별시 노원구 서울 노원구 초안산로2라길 26", "latitude": 37.62917328, "longitude": 127.0569305, "type": "QR", "category": "자전거"},
  {"id": 517, "name": "중계 롯데마트", "address": "서울특별시 노원구 서울 노원구 노원로 330", "latitude": 37.64584351, "longitude": 127.070755, "type": "QR", "category": "자전거"},
  {"id": 518, "name": "당고개역 3번 출구", "address": "서울특별시 노원구 서울 노원구 상계로 305", "latitude": 37.67030334, "longitude": 127.0788422, "type": "QR", "category": "자전거"},
  {"id": 519, "name": "노원역 1번 출구", "address": "서울특별시 노원구 노원로 330", "latitude": 37.63378312, "longitude": 127.0786061, "type": "QR", "category": "자전거"},
  {"id": 520, "name": "상계2동 주민센터", "address": "서울특별시 노원구 한글비석로 56 상계주공 7단지", "latitude": 37.66146337, "longitude": 127.0711695, "type": "QR", "category": "자전거"},
  {"id": 521, "name": "노원구청", "address": "서울특별시 노원구 노원로 274", "latitude": 37.6325477, "longitude": 127.0690294, "type": "QR", "category": "자전거"},
  {"id": 522, "name": "노원역 롯데백화점", "address": "서울특별시 노원구 서울 노원구 노원로 330", "latitude": 37.63138791, "longitude": 127.0788202, "type": "QR", "category": "자전거"},
  {"id": 523, "name": "상계천 산책로", "address": "서울특별시 노원구 서울 노원구 상계로 146", "latitude": 37.659435, "longitude": 127.068873, "type": "QR", "category": "자전거"},
  {"id": 524, "name": "월계1동주민센터 앞", "address": "서울특별시 노원구 석계로 59 월계1동주민센터", "latitude": 37.61985016, "longitude": 127.0631027, "type": "QR", "category": "자전거"},
  {"id": 525, "name": "중계주공2단지 앞", "address": "서울특별시 노원구 한글비석로 332 주공2단지아파트", "latitude": 37.65694046, "longitude": 127.0780487, "type": "QR", "category": "자전거"},
  {"id": 526, "name": "당고개역 앞", "address": "서울특별시 노원구 상계로 309", "latitude": 37.67073822, "longitude": 127.0796204, "type": "QR", "category": "자전거"},
  {"id": 527, "name": "공릉동 신도1차 아파트 뒤", "address": "서울특별시 노원구 동일로191가길 59 공릉동 신도1차아파트", "latitude": 37.62780762, "longitude": 127.0696182, "type": "QR", "category": "자전거"},
  {"id": 528, "name": "극동의 푸른별 아파트 뒤(중계4동주민센터 앞)", "address": "서울특별시 노원구 한글비석로14길 36 극동의푸른별 2차아파트", "latitude": 37.65868759, "longitude": 127.0775909, "type": "QR", "category": "자전거"},
  {"id": 529, "name": "연해피빌 앞", "address": "노원구 공릉로62가길 14", "latitude": 37.63645935, "longitude": 127.0727692, "type": "QR", "category": "자전거"},
  {"id": 530, "name": "한국스포츠정책과학원 앞", "address": "노원구 화랑로 727", "latitude": 37.63573456, "longitude": 127.1058502, "type": "QR", "category": "자전거"},
  {"id": 531, "name": "불암아파트 앞", "address": "노원구 상계동 107-1798", "latitude": 37.66751862, "longitude": 127.0791626, "type": "QR", "category": "자전거"},
  {"id": 532, "name": "노원성당 앞", "address": "노원구 한글비석로 585", "latitude": 37.66450882, "longitude": 127.0527039, "type": "QR", "category": "자전거"},
  {"id": 533, "name": "하계역 4번출구 앞", "address": "노원구 섬밭로196", "latitude": 37.63534546, "longitude": 127.0675278, "type": "QR", "category": "자전거"},
  {"id": 534, "name": "구립수락노인복지관", "address": "노원구 수락산로 214", "latitude": 37.6712532, "longitude": 127.0547485, "type": "QR", "category": "자전거"},
  {"id": 535, "name": "상계주공7단지 아파트 앞", "address": "노원구 동일로 1456", "latitude": 37.65983963, "longitude": 127.0593567, "type": "QR", "category": "자전거"},
  {"id": 536, "name": "대진고교앞 교차로", "address": "노원구 노원로 236", "latitude": 37.6391716, "longitude": 127.0747299, "type": "QR", "category": "자전거"},
  {"id": 537, "name": "태릉선수촌 앞", "address": "노원구 화랑로 681", "latitude": 37.63434219, "longitude": 127.1042786, "type": "QR", "category": "자전거"},
  {"id": 538, "name": "롯데캐슬시그니처 아파트 앞", "address": "노원구 상계동 84-9", "latitude": 37.66475296, "longitude": 127.076004, "type": "QR", "category": "자전거"},
  {"id": 539, "name": "상계주공15단지 1509동 앞", "address": "노원구 동일로227길 26", "latitude": 37.66940308, "longitude": 127.0563202, "type": "QR", "category": "자전거"},
  {"id": 540, "name": "천주교 보문동 성당", "address": "성북구 보문로 75", "latitude": 37.58204651, "longitude": 127.0209961, "type": "QR", "category": "자전거"},
  {"id": 541, "name": "공릉동 풍림아파트 112동 앞", "address": "노원구 섬밭로 139", "latitude": 37.6281929, "longitude": 127.0678787, "type": "QR", "category": "자전거"},
  {"id": 542, "name": "마들역 4번 출구", "address": "노원구 동일로 1449", "latitude": 37.66401672, "longitude": 127.0581741, "type": "QR", "category": "자전거"},
  {"id": 543, "name": "노원역 9번-10번 출구 앞", "address": "노원구 상계로 76-2", "latitude": 37.65655518, "longitude": 127.063591, "type": "QR", "category": "자전거"},
  {"id": 544, "name": "화랑대역 3번 출구", "address": "노원구 화랑로 510", "latitude": 37.62081528, "longitude": 127.083992, "type": "QR", "category": "자전거"},
  {"id": 545, "name": "하계역 1번 출구", "address": "노원구 하계동 273-5", "latitude": 37.63789749, "longitude": 127.0676041, "type": "QR", "category": "자전거"},
  {"id": 546, "name": "월계 고등학교 앞", "address": "노원구 초안산로5길 66", "latitude": 37.63233185, "longitude": 127.0494995, "type": "QR", "category": "자전거"},
  {"id": 547, "name": "태강릉 앞", "address": "노원구 화랑로 681", "latitude": 37.62966537, "longitude": 127.0972366, "type": "QR", "category": "자전거"},
  {"id": 548, "name": "상계초교 입구 교차로", "address": "노원구 상계동 368-10", "latitude": 37.65703583, "longitude": 127.0659332, "type": "QR", "category": "자전거"},
  {"id": 549, "name": "은빛1단지 아파트 앞", "address": "노원구 동일로 245길 162", "latitude": 37.68120956, "longitude": 127.0551682, "type": "QR", "category": "자전거"},
  {"id": 550, "name": "을지로5가(방산시장)", "address": "중구 동호로 369", "latitude": 37.56739807, "longitude": 127.0020142, "type": "QR", "category": "자전거"},
  {"id": 551, "name": "서울도시건축전시관 옆", "address": "중구 세종대로 101", "latitude": 37.56653976, "longitude": 126.9768448, "type": "QR", "category": "자전거"},
  {"id": 552, "name": "덕수중학교", "address": "중구 인현동2가 240-2", "latitude": 37.56439209, "longitude": 126.9972992, "type": "QR", "category": "자전거"}
]
