[
  {
    "id": "1",
    "name": "포케올데이",
    "type": "샐러드",
    "address": "서울 노원구 동일로217가길 17 승경빌딩 1층 106호",
    "category": "비건",
    "latitude": 37.6533351,
    "longitude": 127.0593915
  },
  {
    "id": "2",
    "name": "갤러리힐링카페",
    "type": "카페, 디저트",
    "address": "서울 노원구 동일로174길 27",
    "category": "자원순환거점",
    "latitude": 37.6201812,
    "longitude": 127.076949
  },
  {
    "id": "3",
    "name": "오오키 베이크",
    "type": "베이커리",
    "address": "서울 노원구 동일로173가길 98 1층",
    "category": "비건",
    "latitude": 37.6226852,
    "longitude": 127.0725187
  },
  {
    "id": "4",
    "name": "코소 베이커리",
    "type": "베이커리",
    "address": "서울 성북구 돌곶이로 220 상가동 1층 105-102",
    "category": "비건",
    "latitude": 37.6193972,
    "longitude": 127.0466286
  },
  {
    "id": "5",
    "name": "저스트 시즌",
    "type": "카페",
    "address": "서울 도봉구 도봉로110다길 26 1층",
    "category": "비건",
    "latitude": 37.6451507,
    "longitude": 127.0335233
  },
  {
    "id": "6",
    "name": "제일콩집",
    "type": "두부요리",
    "address": "서울 노원구 동일로174길 37-8",
    "category": "비건",
    "latitude": 37.6195249,
    "longitude": 127.0776613
  },
  {
    "id": "7",
    "name": "더숲 더베이크샵",
    "type": "베이커리",
    "address": "서울특별시 노원구 노해로 480 조광빌딩 지하1층",
    "category": "비건",
    "latitude": 37.6541852,
    "longitude": 127.0614531
  },
  {
    "id": "8",
    "name": "샐러디 태릉",
    "type": "샐러드",
    "address": "서울 노원구 화랑로 421 104호",
    "category": "비건",
    "latitude": 37.6175151,
    "longitude": 127.0743905
  },
  {
    "id": "9",
    "name": "피렌체테이블",
    "type": "이탈리아 음식",
    "address": "경기 남양주시 별내중앙로 84 동익미라벨 3904동 1층코너",
    "category": "비건",
    "latitude": 37.6497183,
    "longitude": 127.1219413
  },
  {
    "id": "10",
    "name": "샐러디 공릉",
    "type": "샐러드",
    "address": "서울 노원구 공릉로 203",
    "category": "비건",
    "latitude": 37.6275121,
    "longitude": 127.0780685
  },
  {
    "id": "11",
    "name": "마녀떡볶이",
    "type": "떡볶이",
    "address": "경기 남양주시 불암로 25-38 101호 마녀떡볶이",
    "category": "비건",
    "latitude": 37.6439383,
    "longitude": 127.1104098
  },
  {
    "id": "12",
    "name": "청소년휴카페 꽃다방",
    "type": "카페, 디저트",
    "address": "서울 노원구 노원로1나길 10",
    "category": "자원순환거점",
    "latitude": 37.6215269,
    "longitude": 127.0830496
  },
  {
    "id": "13",
    "name": "주주베이커리",
    "type": "베이커리",
    "address": "서울 노원구 섬밭로 196 B 02호",
    "category": "비건",
    "latitude": 37.6334378,
    "longitude": 127.0675551
  },
  {
    "id": "14",
    "name": "아워리",
    "type": "카페",
    "address": "서울특별시 노원구 중계로2길 84 1층 101호 아워리",
    "category": "비건",
    "latitude": 37.6434077,
    "longitude": 127.0835705
  },
  {
    "id": "15",
    "name": "고소미부엌",
    "type": "분식",
    "address": "서울 노원구 동일로 986 101동 108호",
    "category": "비건",
    "latitude": 37.618481,
    "longitude": 127.076212
  },
  {
    "id": "16",
    "name": "커피그린",
    "type": "카페, 디저트",
    "address": "경기도 구리시 갈매순환로 188 스칸센 지식산업센터 A동 133호",
    "category": "비건",
    "latitude": 37.6361677,
    "longitude": 127.1222475
  },
  {
    "id": "17",
    "name": "두드린",
    "type": "베이커리",
    "address": "서울 도봉구 도봉로112길 22 1층",
    "category": "비건",
    "latitude": 37.6467801,
    "longitude": 127.0358831
  },
  {
    "id": "18",
    "name": "쌀루떼",
    "type": "카페",
    "address": "서울 성북구 장월로23길 47-3 1F",
    "category": "비건",
    "latitude": 37.6170276,
    "longitude": 127.0464328
  },
  {
    "id": "19",
    "name": "러빙헛리얼러브",
    "type": "한식",
    "address": "서울 성북구 장월로3길 1 B106호",
    "category": "비건",
    "latitude": 37.607878,
    "longitude": 127.0470329
  }
]
