[
  {
    "id": "20",
    "name": "스토어 36.5",
    "type": "기업",
    "address": "서울 노원구 동일로 1409",
    "category": "제로웨이스트 샵",
    "latitude": 37.6546947,
    "longitude": 127.0605175
  },
  {
    "id": "21",
    "name": "녹색장터 되살림 가게",
    "type": "재활용",
    "address": "서울 노원구 동일로 1409 지하",
    "category": "제로웨이스트 샵",
    "latitude": 37.6546947,
    "longitude": 127.0605175
  },
  {
    "id": "22",
    "name": "오아시스마켓 중계",
    "type": "슈퍼, 마트",
    "address": "서울 노원구 한글비석로 270 스카이타워 1층 102호",
    "category": "제로웨이스트 샵",
    "latitude": 37.6515779,
    "longitude": 127.0774074
  },
  {
    "id": "23",
    "name": "오아시스마켓 노원",
    "type": "슈퍼, 마트",
    "address": "서울 노원구 동일로 1396 1층 2호",
    "category": "제로웨이스트 샵",
    "latitude": 37.6532481,
    "longitude": 127.061325
  },
  {
    "id": "24",
    "name": "순환지구",
    "type": "종합생활용품",
    "address": "서울 성북구 동소문로25길 8 1층",
    "category": "제로웨이스트 샵",
    "latitude": 37.5948113,
    "longitude": 127.0186063
  },
  {
    "id": "25",
    "name": "안녕상점",
    "type": "친환경용품",
    "address": "서울 도봉구 도봉로143길 18 2층",
    "category": "제로웨이스트 샵",
    "latitude": 37.6546947,
    "longitude": 127.0605175
  },
  {
    "id": "26",
    "name": "행복중심서울동북소비자생협공릉",
    "type": "생활협동조합",
    "address": "서울 노원구 공릉로34길 23",
    "category": "제로웨이스트 샵",
    "latitude": 37.6229639,
    "longitude": 127.0803416
  },
  {
    "id": "27",
    "name": "보탬상점",
    "type": "종합소도매",
    "address": "서울 중랑구 봉화산로22길 2 스타팰리스 1층",
    "category": "제로웨이스트 샵",
    "latitude": 37.6015079,
    "longitude": 127.0817482
  },
  {
    "id": "28",
    "name": "아워리라이프",
    "type": "친환경용품",
    "address": "서울 노원구 중계로2길 84 1층 아워리 라이프",
    "category": "제로 웨이스트샵",
    "latitude": 37.6434077,
    "longitude": 127.0835705
  },
  {
    "id": "29",
    "name": "오아시스마켓 별내",
    "type": "슈퍼, 마트",
    "address": "경기 남양주시 별내5로5번길 3 별내마들프라자 106호",
    "category": "제로웨이스트 샵",
    "latitude": 37.6497705,
    "longitude": 127.1133526
  },
  {
    "id": "30",
    "name": "낭만제일",
    "type": "공방",
    "address": "서울 성북구 장위로 10",
    "category": "제로웨이스트 샵",
    "latitude": 37.613023,
    "longitude": 127.0381854
  },
  {
    "id": "31",
    "name": "지구시민",
    "type": "슈퍼, 마트",
    "address": "경기 남양주시 다산중앙로19번길 21 F동 311호",
    "category": "제로웨이스트 샵",
    "latitude": 37.6138746,
    "longitude": 127.1532074
  },
  {
    "id": "32",
    "name": "행복중심서울동북소비자생협 창동",
    "type": "생활협동조합",
    "address": "서울 도봉구 노해로63가길 12",
    "category": "제로웨이스트 샵",
    "latitude": 37.6531966,
    "longitude": 127.0452685
  },
  {
    "id": "33",
    "name": "일상공감",
    "type": "종합소도매",
    "address": "서울 성북구 삼양로 27 1층",
    "category": "제로웨이스트",
    "latitude": 37.605603,
    "longitude": 127.0239732
  }
]
